<geodata>
  <features>
    <feature xml:id="id-1590" type="Point">{"type": "Feature", "properties": {"name": "Unicorn Inn", "place_type": "victualling-house", "is_approximate": false, "placeholder_coordinates": null, "container": 643, "patrons_label_flag": 2, "symbol_flag": 2, "notes": "", "pk": "1590", "eats_name": "<eats_name/>", "eats_url": "<eats_url/>", "record_title": "<record_title/>", "record_url": "<record_url/>"}, "geometry": {"type": "Point", "coordinates": [-0.09608543233336712, 51.50823185825775]}}</feature>
    <feature xml:id="id-1588" type="Point">{"type": "Feature", "properties": {"name": "Hartshorn Inn", "place_type": "victualling-house", "is_approximate": false, "placeholder_coordinates": null, "container": 643, "patrons_label_flag": 2, "symbol_flag": 2, "notes": "", "pk": "1588", "eats_name": "<eats_name/>", "eats_url": "<eats_url/>", "record_title": "<record_title/>", "record_url": "<record_url/>"}, "geometry": {"type": "Point", "coordinates": [-0.0950477308564815, 51.50805309425683]}}</feature>
    <feature xml:id="id-1332" type="Point">{"type": "Feature", "properties": {"name": "Town Hall", "place_type": "town hall", "is_approximate": true, "placeholder_coordinates": null, "container": 146, "patrons_label_flag": 3, "symbol_flag": 3, "notes": "", "pk": "1332", "eats_name": "<eats_name/>", "eats_url": "<eats_url/>", "record_title": "<record_title/>", "record_url": "<record_url/>"}, "geometry": {"type": "Point", "coordinates": [-0.7972984313967517, 51.214024002041434]}}</feature>
    <feature xml:id="id-1354" type="Point">{"type": "Feature", "properties": {"name": "Melbourne", "place_type": "settlement", "is_approximate": false, "placeholder_coordinates": null, "container": 5, "patrons_label_flag": 2, "symbol_flag": 2, "notes": "", "pk": "1354", "eats_name": "<eats_name/>", "eats_url": "<eats_url/>", "record_title": "<record_title/>", "record_url": "<record_url/>"}, "geometry": {"type": "Point", "coordinates": [-1.4272227287293702, 52.82217945425347]}}</feature>
    <feature xml:id="id-79" type="Point">{"type": "Feature", "properties": {"name": "Clitheroe", "place_type": "settlement", "is_approximate": false, "placeholder_coordinates": null, "container": 18, "patrons_label_flag": 1, "symbol_flag": 1, "notes": "", "pk": "79", "eats_name": "<eats_name/>", "eats_url": "<eats_url/>", "record_title": "<record_title/>", "record_url": "<record_url/>"}, "geometry": {"type": "Point", "coordinates": [-2.3792106980784307, 53.87329584309789]}}</feature>
    <feature xml:id="id-126" type="Point">{"type": "Feature", "properties": {"name": "Guildhall", "place_type": "guildhall", "is_approximate": false, "placeholder_coordinates": null, "container": 1034, "patrons_label_flag": 1, "symbol_flag": 1, "notes": "", "pk": "126", "eats_name": "<eats_name/>", "eats_url": "<eats_url/>", "record_title": "<record_title/>", "record_url": "<record_url/>"}, "geometry": {"type": "Point", "coordinates": [-1.9870420815234802, 52.58597294855374]}}</feature>
    <feature xml:id="id-1249" type="Point">{"type": "Feature", "properties": {"name": "Isle of Wight", "place_type": "settlement", "is_approximate": false, "placeholder_coordinates": null, "container": 19, "patrons_label_flag": 1, "symbol_flag": 1, "notes": "", "pk": "1249", "eats_name": "<eats_name/>", "eats_url": "<eats_url/>", "record_title": "<record_title/>", "record_url": "<record_url/>"}, "geometry": {"type": "Point", "coordinates": [-1.303802557813482, 50.67749035783487]}}</feature>
    <feature xml:id="id-73" type="Point">{"type": "Feature", "properties": {"name": "Wigan", "place_type": "settlement", "is_approximate": false, "placeholder_coordinates": null, "container": 18, "patrons_label_flag": 1, "symbol_flag": 1, "notes": "", "pk": "73", "eats_name": "<eats_name/>", "eats_url": "<eats_url/>", "record_title": "<record_title/>", "record_url": "<record_url/>"}, "geometry": {"type": "Point", "coordinates": [-2.6578939428447246, 53.55130918852572]}}</feature>
    <feature xml:id="id-343" type="Point">{"type": "Feature", "properties": {"name": "Trerice House", "place_type": "residence", "is_approximate": false, "placeholder_coordinates": null, "container": 38, "patrons_label_flag": 3, "symbol_flag": 3, "notes": "", "pk": "343", "eats_name": "<eats_name/>", "eats_url": "<eats_url/>", "record_title": "<record_title/>", "record_url": "<record_url/>"}, "geometry": {"type": "Point", "coordinates": [-5.038493567506433, 50.386616862029484]}}</feature>
    <feature xml:id="id-106" type="Point">{"type": "Feature", "properties": {"name": "Handsacre", "place_type": "settlement", "is_approximate": false, "placeholder_coordinates": null, "container": 4, "patrons_label_flag": 1, "symbol_flag": 1, "notes": "", "pk": "106", "eats_name": "<eats_name/>", "eats_url": "<eats_url/>", "record_title": "<record_title/>", "record_url": "<record_url/>"}, "geometry": {"type": "Point", "coordinates": [-1.8668481190407726, 52.743643914398746]}}</feature>
    <feature xml:id="id-101" type="Point">{"type": "Feature", "properties": {"name": "Warrington", "place_type": "settlement", "is_approximate": false, "placeholder_coordinates": null, "container": 18, "patrons_label_flag": 1, "symbol_flag": 1, "notes": "", "pk": "101", "eats_name": "<eats_name/>", "eats_url": "<eats_url/>", "record_title": "<record_title/>", "record_url": "<record_url/>"}, "geometry": {"type": "Point", "coordinates": [-2.5848545250207504, 53.39128750949984]}}</feature>
    <feature xml:id="id-105" type="Point">{"type": "Feature", "properties": {"name": "Manchester", "place_type": "settlement", "is_approximate": false, "placeholder_coordinates": null, "container": 18, "patrons_label_flag": 1, "symbol_flag": 1, "notes": "", "pk": "105", "eats_name": "<eats_name/>", "eats_url": "<eats_url/>", "record_title": "<record_title/>", "record_url": "<record_url/>"}, "geometry": {"type": "Point", "coordinates": [-2.243490332378443, 53.48007327969795]}}</feature>
    <feature xml:id="id-100" type="Point">{"type": "Feature", "properties": {"name": "Nantwich", "place_type": "settlement", "is_approximate": false, "placeholder_coordinates": null, "container": 17, "patrons_label_flag": 1, "symbol_flag": 1, "notes": "", "pk": "100", "eats_name": "<eats_name/>", "eats_url": "<eats_url/>", "record_title": "<record_title/>", "record_url": "<record_url/>"}, "geometry": {"type": "Point", "coordinates": [-2.5074721031410623, 53.06308768343246]}}</feature>
    <feature xml:id="id-103" type="Point">{"type": "Feature", "properties": {"name": "Church Eaton", "place_type": "settlement", "is_approximate": false, "placeholder_coordinates": null, "container": 4, "patrons_label_flag": 1, "symbol_flag": 1, "notes": "", "pk": "103", "eats_name": "<eats_name/>", "eats_url": "<eats_url/>", "record_title": "<record_title/>", "record_url": "<record_url/>"}, "geometry": {"type": "Point", "coordinates": [-2.233688880788759, 52.75500326893297]}}</feature>
    <feature xml:id="id-1586" type="Point">{"type": "Feature", "properties": {"name": "Lion Inn", "place_type": "victualling-house", "is_approximate": false, "placeholder_coordinates": null, "container": 643, "patrons_label_flag": 3, "symbol_flag": 3, "notes": "", "pk": "1586", "eats_name": "<eats_name/>", "eats_url": "<eats_url/>", "record_title": "<record_title/>", "record_url": "<record_url/>"}, "geometry": {"type": "Point", "coordinates": [-0.09452369863547755, 51.507917741116216]}}</feature>
    <feature xml:id="id-1587" type="Point">{"type": "Feature", "properties": {"name": "Ram Inn", "place_type": "victualling-house", "is_approximate": false, "placeholder_coordinates": null, "container": 643, "patrons_label_flag": 3, "symbol_flag": 3, "notes": "", "pk": "1587", "eats_name": "<eats_name/>", "eats_url": "<eats_url/>", "record_title": "<record_title/>", "record_url": "<record_url/>"}, "geometry": {"type": "Point", "coordinates": [-0.09473795491559399, 51.50796979602117]}}</feature>
    <feature xml:id="id-1589" type="Point">{"type": "Feature", "properties": {"name": "Rose Inn", "place_type": "victualling-house", "is_approximate": false, "placeholder_coordinates": null, "container": 643, "patrons_label_flag": 3, "symbol_flag": 3, "notes": "", "pk": "1589", "eats_name": "<eats_name/>", "eats_url": "<eats_url/>", "record_title": "<record_title/>", "record_url": "<record_url/>"}, "geometry": {"type": "Point", "coordinates": [-0.09518800548303524, 51.50808701690551]}}</feature>
    <feature xml:id="id-521" type="Point">{"type": "Feature", "properties": {"name": "Red Lion Inn", "place_type": "victualling-house", "is_approximate": false, "placeholder_coordinates": null, "container": 55, "patrons_label_flag": 3, "symbol_flag": 3, "notes": "", "pk": "521", "eats_name": "<eats_name/>", "eats_url": "<eats_url/>", "record_title": "<record_title/>", "record_url": "<record_url/>"}, "geometry": {"type": "Point", "coordinates": [1.2945930238544292, 52.62655507172195]}}</feature>
    <feature xml:id="id-104" type="Point">{"type": "Feature", "properties": {"name": "The Swan", "place_type": "victualling-house", "is_approximate": false, "placeholder_coordinates": null, "container": 596, "patrons_label_flag": 3, "symbol_flag": 3, "notes": "", "pk": "104", "eats_name": "<eats_name/>", "eats_url": "<eats_url/>", "record_title": "<record_title/>", "record_url": "<record_url/>"}, "geometry": {"type": "Point", "coordinates": [-2.214325047154208, 53.163142365724696]}}</feature>
    <feature xml:id="id-172" type="Point">{"type": "Feature", "properties": {"name": "Court Hall", "place_type": "town hall", "is_approximate": false, "placeholder_coordinates": null, "container": 603, "patrons_label_flag": 3, "symbol_flag": 3, "notes": "", "pk": "172", "eats_name": "<eats_name/>", "eats_url": "<eats_url/>", "record_title": "<record_title/>", "record_url": "<record_url/>"}, "geometry": {"type": "Point", "coordinates": [0.734266392322899, 50.95027032980102]}}</feature>
    <feature xml:id="id-795" type="Point">{"type": "Feature", "properties": {"name": "Childrey", "place_type": "settlement", "is_approximate": false, "placeholder_coordinates": null, "container": 21, "patrons_label_flag": 2, "symbol_flag": 2, "notes": "", "pk": "795", "eats_name": "<eats_name/>", "eats_url": "<eats_url/>", "record_title": "<record_title/>", "record_url": "<record_url/>"}, "geometry": {"type": "Point", "coordinates": [-1.4802040000000019, 51.58628299999998]}}</feature>
    <feature xml:id="id-319" type="Point">{"type": "Feature", "properties": {"name": "Middleton Hall", "place_type": "residence", "is_approximate": false, "placeholder_coordinates": null, "container": 2, "patrons_label_flag": 3, "symbol_flag": 3, "notes": "", "pk": "319", "eats_name": "<eats_name/>", "eats_url": "<eats_url/>", "record_title": "<record_title/>", "record_url": "<record_url/>"}, "geometry": {"type": "Point", "coordinates": [-2.574509448953725, 54.28134211821112]}}</feature>
    <feature xml:id="id-751" type="Point">{"type": "Feature", "properties": {"name": "Longcot", "place_type": "settlement", "is_approximate": false, "placeholder_coordinates": null, "container": 21, "patrons_label_flag": 2, "symbol_flag": 2, "notes": "", "pk": "751", "eats_name": "<eats_name/>", "eats_url": "<eats_url/>", "record_title": "<record_title/>", "record_url": "<record_url/>"}, "geometry": {"type": "Point", "coordinates": [-1.6036069999999896, 51.61557599999999]}}</feature>
    <feature xml:id="id-80" type="Point">{"type": "Feature", "properties": {"name": "Wigglesworth", "place_type": "settlement", "is_approximate": false, "placeholder_coordinates": null, "container": 3, "patrons_label_flag": 1, "symbol_flag": 1, "notes": "", "pk": "80", "eats_name": "<eats_name/>", "eats_url": "<eats_url/>", "record_title": "<record_title/>", "record_url": "<record_url/>"}, "geometry": {"type": "Point", "coordinates": [-2.2805629282966566, 54.00464488341124]}}</feature>
    <feature xml:id="id-765" type="Point">{"type": "Feature", "properties": {"name": "Maidenhead", "place_type": "settlement", "is_approximate": false, "placeholder_coordinates": null, "container": 21, "patrons_label_flag": 2, "symbol_flag": 2, "notes": "", "pk": "765", "eats_name": "<eats_name/>", "eats_url": "<eats_url/>", "record_title": "<record_title/>", "record_url": "<record_url/>"}, "geometry": {"type": "Point", "coordinates": [-0.7206149999999949, 51.52427999999997]}}</feature>
    <feature xml:id="id-746" type="Point">{"type": "Feature", "properties": {"name": "Coleshill", "place_type": "settlement", "is_approximate": false, "placeholder_coordinates": null, "container": 21, "patrons_label_flag": 2, "symbol_flag": 2, "notes": "", "pk": "746", "eats_name": "<eats_name/>", "eats_url": "<eats_url/>", "record_title": "<record_title/>", "record_url": "<record_url/>"}, "geometry": {"type": "Point", "coordinates": [-1.6581319999999906, 51.64256999999999]}}</feature>
    <feature xml:id="id-784" type="Point">{"type": "Feature", "properties": {"name": "Datchet", "place_type": "settlement", "is_approximate": false, "placeholder_coordinates": null, "container": 21, "patrons_label_flag": 2, "symbol_flag": 2, "notes": "", "pk": "784", "eats_name": "<eats_name/>", "eats_url": "<eats_url/>", "record_title": "<record_title/>", "record_url": "<record_url/>"}, "geometry": {"type": "Point", "coordinates": [-0.5798310000000079, 51.48382]}}</feature>
    <feature xml:id="id-663" type="Point">{"type": "Feature", "properties": {"name": "Fulham", "place_type": "settlement", "is_approximate": false, "placeholder_coordinates": null, "container": 58, "patrons_label_flag": 2, "symbol_flag": 2, "notes": "", "pk": "663", "eats_name": "<eats_name/>", "eats_url": "<eats_url/>", "record_title": "<record_title/>", "record_url": "<record_url/>"}, "geometry": {"type": "Point", "coordinates": [-0.2118329874845511, 51.46853199601615]}}</feature>
    <feature xml:id="id-766" type="Point">{"type": "Feature", "properties": {"name": "Denchworth", "place_type": "settlement", "is_approximate": false, "placeholder_coordinates": null, "container": 21, "patrons_label_flag": 2, "symbol_flag": 2, "notes": "", "pk": "766", "eats_name": "<eats_name/>", "eats_url": "<eats_url/>", "record_title": "<record_title/>", "record_url": "<record_url/>"}, "geometry": {"type": "Point", "coordinates": [-1.4504740000000025, 51.62451]}}</feature>
    <feature xml:id="id-756" type="Point">{"type": "Feature", "properties": {"name": "Newbury", "place_type": "settlement", "is_approximate": false, "placeholder_coordinates": null, "container": 21, "patrons_label_flag": 1, "symbol_flag": 1, "notes": "", "pk": "756", "eats_name": "<eats_name/>", "eats_url": "<eats_url/>", "record_title": "<record_title/>", "record_url": "<record_url/>"}, "geometry": {"type": "Point", "coordinates": [-1.3216570000000065, 51.400489999999984]}}</feature>
    <feature xml:id="id-787" type="Point">{"type": "Feature", "properties": {"name": "Didcot", "place_type": "settlement", "is_approximate": false, "placeholder_coordinates": null, "container": 21, "patrons_label_flag": 2, "symbol_flag": 2, "notes": "", "pk": "787", "eats_name": "<eats_name/>", "eats_url": "<eats_url/>", "record_title": "<record_title/>", "record_url": "<record_url/>"}, "geometry": {"type": "Point", "coordinates": [-1.2509759999999899, 51.61267]}}</feature>
    <feature xml:id="id-789" type="Point">{"type": "Feature", "properties": {"name": "Warfield", "place_type": "settlement", "is_approximate": false, "placeholder_coordinates": null, "container": 21, "patrons_label_flag": 2, "symbol_flag": 2, "notes": "", "pk": "789", "eats_name": "<eats_name/>", "eats_url": "<eats_url/>", "record_title": "<record_title/>", "record_url": "<record_url/>"}, "geometry": {"type": "Point", "coordinates": [-0.7321799999999993, 51.44206999999998]}}</feature>
    <feature xml:id="id-74" type="Point">{"type": "Feature", "properties": {"name": "Preston", "place_type": "settlement", "is_approximate": false, "placeholder_coordinates": null, "container": 18, "patrons_label_flag": 1, "symbol_flag": 1, "notes": "", "pk": "74", "eats_name": "<eats_name/>", "eats_url": "<eats_url/>", "record_title": "<record_title/>", "record_url": "<record_url/>"}, "geometry": {"type": "Point", "coordinates": [-2.6749295381972145, 53.75326486937142]}}</feature>
    <feature xml:id="id-506" type="Point">{"type": "Feature", "properties": {"name": "Trinity College", "place_type": "college", "is_approximate": false, "placeholder_coordinates": null, "container": 68, "patrons_label_flag": 3, "symbol_flag": 3, "notes": "", "pk": "506", "eats_name": "<eats_name/>", "eats_url": "<eats_url/>", "record_title": "<record_title/>", "record_url": "<record_url/>"}, "geometry": {"type": "Point", "coordinates": [0.11750494371458862, 52.20687344514997]}}</feature>
    <feature xml:id="id-77" type="Point">{"type": "Feature", "properties": {"name": "Ribchester", "place_type": "settlement", "is_approximate": false, "placeholder_coordinates": null, "container": 18, "patrons_label_flag": 1, "symbol_flag": 1, "notes": "", "pk": "77", "eats_name": "<eats_name/>", "eats_url": "<eats_url/>", "record_title": "<record_title/>", "record_url": "<record_url/>"}, "geometry": {"type": "Point", "coordinates": [-2.524533190884659, 53.81242996903924]}}</feature>
    <feature xml:id="id-786" type="Point">{"type": "Feature", "properties": {"name": "Shrivenham", "place_type": "settlement", "is_approximate": false, "placeholder_coordinates": null, "container": 21, "patrons_label_flag": 2, "symbol_flag": 2, "notes": "", "pk": "786", "eats_name": "<eats_name/>", "eats_url": "<eats_url/>", "record_title": "<record_title/>", "record_url": "<record_url/>"}, "geometry": {"type": "Point", "coordinates": [-1.6541410000000114, 51.598943]}}</feature>
    <feature xml:id="id-772" type="Point">{"type": "Feature", "properties": {"name": "Sindlesham", "place_type": "settlement", "is_approximate": false, "placeholder_coordinates": null, "container": 21, "patrons_label_flag": 2, "symbol_flag": 2, "notes": "", "pk": "772", "eats_name": "<eats_name/>", "eats_url": "<eats_url/>", "record_title": "<record_title/>", "record_url": "<record_url/>"}, "geometry": {"type": "Point", "coordinates": [-0.8881539999999987, 51.42155099999998]}}</feature>
    <feature xml:id="id-1355" type="Point">{"type": "Feature", "properties": {"name": "Bolsover", "place_type": "settlement", "is_approximate": false, "placeholder_coordinates": null, "container": 5, "patrons_label_flag": 2, "symbol_flag": 2, "notes": "", "pk": "1355", "eats_name": "<eats_name/>", "eats_url": "<eats_url/>", "record_title": "<record_title/>", "record_url": "<record_url/>"}, "geometry": {"type": "Point", "coordinates": [-1.292026519775652, 53.229791590104874]}}</feature>
    <feature xml:id="id-776" type="Point">{"type": "Feature", "properties": {"name": "St Clement's Church", "place_type": "church", "is_approximate": false, "placeholder_coordinates": null, "container": 775, "patrons_label_flag": 3, "symbol_flag": 3, "notes": "", "pk": "776", "eats_name": "<eats_name/>", "eats_url": "<eats_url/>", "record_title": "<record_title/>", "record_url": "<record_url/>"}, "geometry": {"type": "Point", "coordinates": [-1.1886339999999949, 51.487419999999986]}}</feature>
    <feature xml:id="id-777" type="Point">{"type": "Feature", "properties": {"name": "Sonning", "place_type": "settlement", "is_approximate": false, "placeholder_coordinates": null, "container": 21, "patrons_label_flag": 2, "symbol_flag": 2, "notes": "", "pk": "777", "eats_name": "<eats_name/>", "eats_url": "<eats_url/>", "record_title": "<record_title/>", "record_url": "<record_url/>"}, "geometry": {"type": "Point", "coordinates": [-0.9127560000000011, 51.472699999999996]}}</feature>
    <feature xml:id="id-979" type="Point">{"type": "Feature", "properties": {"name": "Durham", "place_type": "settlement", "is_approximate": false, "placeholder_coordinates": null, "container": 49, "patrons_label_flag": 1, "symbol_flag": 1, "notes": "", "pk": "979", "eats_name": "<eats_name/>", "eats_url": "<eats_url/>", "record_title": "<record_title/>", "record_url": "<record_url/>"}, "geometry": {"type": "Point", "coordinates": [-1.5753461765798642, 54.77741654231046]}}</feature>
    <feature xml:id="id-792" type="Point">{"type": "Feature", "properties": {"name": "Stanford in the Vale", "place_type": "settlement", "is_approximate": false, "placeholder_coordinates": null, "container": 21, "patrons_label_flag": 2, "symbol_flag": 2, "notes": "", "pk": "792", "eats_name": "<eats_name/>", "eats_url": "<eats_url/>", "record_title": "<record_title/>", "record_url": "<record_url/>"}, "geometry": {"type": "Point", "coordinates": [-1.5107419999999898, 51.639849999999996]}}</feature>
    <feature xml:id="id-748" type="Point">{"type": "Feature", "properties": {"name": "Steventon", "place_type": "settlement", "is_approximate": false, "placeholder_coordinates": null, "container": 21, "patrons_label_flag": 2, "symbol_flag": 2, "notes": "", "pk": "748", "eats_name": "<eats_name/>", "eats_url": "<eats_url/>", "record_title": "<record_title/>", "record_url": "<record_url/>"}, "geometry": {"type": "Point", "coordinates": [-1.3293030000000106, 51.620719999999984]}}</feature>
    <feature xml:id="id-764" type="Point">{"type": "Feature", "properties": {"name": "St Giles' Church", "place_type": "church", "is_approximate": false, "placeholder_coordinates": null, "container": 144, "patrons_label_flag": 3, "symbol_flag": 3, "notes": "", "pk": "764", "eats_name": "<eats_name/>", "eats_url": "<eats_url/>", "record_title": "<record_title/>", "record_url": "<record_url/>"}, "geometry": {"type": "Point", "coordinates": [-0.9703799999999916, 51.45099999999999]}}</feature>
    <feature xml:id="id-83" type="Point">{"type": "Feature", "properties": {"name": "Elland", "place_type": "settlement", "is_approximate": false, "placeholder_coordinates": null, "container": 3, "patrons_label_flag": 3, "symbol_flag": 3, "notes": "", "pk": "83", "eats_name": "<eats_name/>", "eats_url": "<eats_url/>", "record_title": "<record_title/>", "record_url": "<record_url/>"}, "geometry": {"type": "Point", "coordinates": [-1.826726100262476, 53.6814817506299]}}</feature>
    <feature xml:id="id-158" type="Point">{"type": "Feature", "properties": {"name": "St James' Church", "place_type": "church", "is_approximate": false, "placeholder_coordinates": null, "container": 60, "patrons_label_flag": 3, "symbol_flag": 3, "notes": "", "pk": "158", "eats_name": "<eats_name/>", "eats_url": "<eats_url/>", "record_title": "<record_title/>", "record_url": "<record_url/>"}, "geometry": {"type": "Point", "coordinates": [-0.007981200719366635, 53.366665045572454]}}</feature>
    <feature xml:id="id-780" type="Point">{"type": "Feature", "properties": {"name": "Ewelme", "place_type": "settlement", "is_approximate": false, "placeholder_coordinates": null, "container": 22, "patrons_label_flag": 2, "symbol_flag": 2, "notes": "", "pk": "780", "eats_name": "<eats_name/>", "eats_url": "<eats_url/>", "record_title": "<record_title/>", "record_url": "<record_url/>"}, "geometry": {"type": "Point", "coordinates": [-1.0660790000000016, 51.616769999999995]}}</feature>
    <feature xml:id="id-783" type="Point">{"type": "Feature", "properties": {"name": "Faringdon", "place_type": "settlement", "is_approximate": false, "placeholder_coordinates": null, "container": 21, "patrons_label_flag": 2, "symbol_flag": 2, "notes": "", "pk": "783", "eats_name": "<eats_name/>", "eats_url": "<eats_url/>", "record_title": "<record_title/>", "record_url": "<record_url/>"}, "geometry": {"type": "Point", "coordinates": [-1.5837070000000044, 51.658435999999995]}}</feature>
    <feature xml:id="id-759" type="Point">{"type": "Feature", "properties": {"name": "Finchampstead", "place_type": "settlement", "is_approximate": false, "placeholder_coordinates": null, "container": 21, "patrons_label_flag": 2, "symbol_flag": 2, "notes": "", "pk": "759", "eats_name": "<eats_name/>", "eats_url": "<eats_url/>", "record_title": "<record_title/>", "record_url": "<record_url/>"}, "geometry": {"type": "Point", "coordinates": [-0.8595130000000054, 51.36143999999999]}}</feature>
    <feature xml:id="id-753" type="Point">{"type": "Feature", "properties": {"name": "Streatley", "place_type": "settlement", "is_approximate": false, "placeholder_coordinates": null, "container": 21, "patrons_label_flag": 2, "symbol_flag": 2, "notes": "", "pk": "753", "eats_name": "<eats_name/>", "eats_url": "<eats_url/>", "record_title": "<record_title/>", "record_url": "<record_url/>"}, "geometry": {"type": "Point", "coordinates": [-1.1460550000000034, 51.522869999999976]}}</feature>
    <feature xml:id="id-794" type="Point">{"type": "Feature", "properties": {"name": "Great Coxwell", "place_type": "settlement", "is_approximate": false, "placeholder_coordinates": null, "container": 21, "patrons_label_flag": 2, "symbol_flag": 2, "notes": "", "pk": "794", "eats_name": "<eats_name/>", "eats_url": "<eats_url/>", "record_title": "<record_title/>", "record_url": "<record_url/>"}, "geometry": {"type": "Point", "coordinates": [-1.6129230000000068, 51.63931999999998]}}</feature>
    <feature xml:id="id-749" type="Point">{"type": "Feature", "properties": {"name": "Swallowfield", "place_type": "settlement", "is_approximate": false, "placeholder_coordinates": null, "container": 21, "patrons_label_flag": 2, "symbol_flag": 2, "notes": "", "pk": "749", "eats_name": "<eats_name/>", "eats_url": "<eats_url/>", "record_title": "<record_title/>", "record_url": "<record_url/>"}, "geometry": {"type": "Point", "coordinates": [-0.9534450000000001, 51.377379999999995]}}</feature>
    <feature xml:id="id-781" type="Point">{"type": "Feature", "properties": {"name": "Thatcham", "place_type": "settlement", "is_approximate": false, "placeholder_coordinates": null, "container": 21, "patrons_label_flag": 2, "symbol_flag": 2, "notes": "", "pk": "781", "eats_name": "<eats_name/>", "eats_url": "<eats_url/>", "record_title": "<record_title/>", "record_url": "<record_url/>"}, "geometry": {"type": "Point", "coordinates": [-1.2613730000000067, 51.401571999999994]}}</feature>
    <feature xml:id="id-109" type="Point">{"type": "Feature", "properties": {"name": "Town Hall", "place_type": "town hall", "is_approximate": false, "placeholder_coordinates": null, "container": 652, "patrons_label_flag": 2, "symbol_flag": 2, "notes": "", "pk": "109", "eats_name": "<eats_name/>", "eats_url": "<eats_url/>", "record_title": "<record_title/>", "record_url": "<record_url/>"}, "geometry": {"type": "Point", "coordinates": [-1.473977244512454, 52.92315770045089]}}</feature>
    <feature xml:id="id-990" type="Point">{"type": "Feature", "properties": {"name": "Guildhall", "place_type": "guildhall", "is_approximate": false, "placeholder_coordinates": null, "container": 57, "patrons_label_flag": 3, "symbol_flag": 3, "notes": "", "pk": "990", "eats_name": "<eats_name/>", "eats_url": "<eats_url/>", "record_title": "<record_title/>", "record_url": "<record_url/>"}, "geometry": {"type": "Point", "coordinates": [-2.5944590272726087, 51.45527936058316]}}</feature>
    <feature xml:id="id-107" type="Point">{"type": "Feature", "properties": {"name": "Bishop's Palace", "place_type": "residence", "is_approximate": false, "placeholder_coordinates": null, "container": 1031, "patrons_label_flag": 1, "symbol_flag": 1, "notes": "", "pk": "107", "eats_name": "<eats_name/>", "eats_url": "<eats_url/>", "record_title": "<record_title/>", "record_url": "<record_url/>"}, "geometry": {"type": "Point", "coordinates": [-1.8304295703112692, 52.686227575466745]}}</feature>
    <feature xml:id="id-989" type="Point">{"type": "Feature", "properties": {"name": "Guildhall", "place_type": "guildhall", "is_approximate": false, "placeholder_coordinates": null, "container": 639, "patrons_label_flag": 3, "symbol_flag": 3, "notes": "", "pk": "989", "eats_name": "<eats_name/>", "eats_url": "<eats_url/>", "record_title": "<record_title/>", "record_url": "<record_url/>"}, "geometry": {"type": "Point", "coordinates": [-2.651136269101872, 51.2087623809734]}}</feature>
    <feature xml:id="id-987" type="Point">{"type": "Feature", "properties": {"name": "Guildhall", "place_type": "guildhall", "is_approximate": false, "placeholder_coordinates": null, "container": 67, "patrons_label_flag": 3, "symbol_flag": 3, "notes": "", "pk": "987", "eats_name": "<eats_name/>", "eats_url": "<eats_url/>", "record_title": "<record_title/>", "record_url": "<record_url/>"}, "geometry": {"type": "Point", "coordinates": [-1.2600029419868193, 51.75301443838484]}}</feature>
    <feature xml:id="id-986" type="Point">{"type": "Feature", "properties": {"name": "Guildhall", "place_type": "guildhall", "is_approximate": false, "placeholder_coordinates": null, "container": 607, "patrons_label_flag": 3, "symbol_flag": 3, "notes": "", "pk": "986", "eats_name": "<eats_name/>", "eats_url": "<eats_url/>", "record_title": "<record_title/>", "record_url": "<record_url/>"}, "geometry": {"type": "Point", "coordinates": [-1.355253807980198, 51.84741428666605]}}</feature>
    <feature xml:id="id-982" type="Point">{"type": "Feature", "properties": {"name": "Guildhall", "place_type": "guildhall", "is_approximate": false, "placeholder_coordinates": null, "container": 606, "patrons_label_flag": 3, "symbol_flag": 3, "notes": "", "pk": "982", "eats_name": "<eats_name/>", "eats_url": "<eats_url/>", "record_title": "<record_title/>", "record_url": "<record_url/>"}, "geometry": {"type": "Point", "coordinates": [-2.711950949907142, 52.05537285692804]}}</feature>
    <feature xml:id="id-147" type="Point">{"type": "Feature", "properties": {"name": "Guildhall", "place_type": "guildhall", "is_approximate": false, "placeholder_coordinates": null, "container": 1037, "patrons_label_flag": 1, "symbol_flag": 1, "notes": "", "pk": "147", "eats_name": "<eats_name/>", "eats_url": "<eats_url/>", "record_title": "<record_title/>", "record_url": "<record_url/>"}, "geometry": {"type": "Point", "coordinates": [-0.6062856829388077, 51.48177555359308]}}</feature>
    <feature xml:id="id-110" type="Point">{"type": "Feature", "properties": {"name": "Guildhall", "place_type": "guildhall", "is_approximate": false, "placeholder_coordinates": null, "container": 1030, "patrons_label_flag": 3, "symbol_flag": 3, "notes": "", "pk": "110", "eats_name": "<eats_name/>", "eats_url": "<eats_url/>", "record_title": "<record_title/>", "record_url": "<record_url/>"}, "geometry": {"type": "Point", "coordinates": [-1.1377225102044097, 52.634612468215366]}}</feature>
    <feature xml:id="id-1324" type="Point">{"type": "Feature", "properties": {"name": "Town Hall", "place_type": "town hall", "is_approximate": true, "placeholder_coordinates": null, "container": 140, "patrons_label_flag": 3, "symbol_flag": 3, "notes": "", "pk": "1324", "eats_name": "<eats_name/>", "eats_url": "<eats_url/>", "record_title": "<record_title/>", "record_url": "<record_url/>"}, "geometry": {"type": "Point", "coordinates": [-1.7305784238563033, 51.42146053435757]}}</feature>
    <feature xml:id="id-773" type="Point">{"type": "Feature", "properties": {"name": "Wokingham", "place_type": "settlement", "is_approximate": false, "placeholder_coordinates": null, "container": 21, "patrons_label_flag": 2, "symbol_flag": 2, "notes": "", "pk": "773", "eats_name": "<eats_name/>", "eats_url": "<eats_url/>", "record_title": "<record_title/>", "record_url": "<record_url/>"}, "geometry": {"type": "Point", "coordinates": [-0.8296759999999901, 51.41413499999998]}}</feature>
    <feature xml:id="id-761" type="Point">{"type": "Feature", "properties": {"name": "Tilehurst", "place_type": "settlement", "is_approximate": false, "placeholder_coordinates": null, "container": 21, "patrons_label_flag": 2, "symbol_flag": 2, "notes": "", "pk": "761", "eats_name": "<eats_name/>", "eats_url": "<eats_url/>", "record_title": "<record_title/>", "record_url": "<record_url/>"}, "geometry": {"type": "Point", "coordinates": [-1.0323400000000027, 51.45278199999999]}}</feature>
    <feature xml:id="id-82" type="Point">{"type": "Feature", "properties": {"name": "Halifax", "place_type": "settlement", "is_approximate": false, "placeholder_coordinates": null, "container": 3, "patrons_label_flag": 1, "symbol_flag": 1, "notes": "", "pk": "82", "eats_name": "<eats_name/>", "eats_url": "<eats_url/>", "record_title": "<record_title/>", "record_url": "<record_url/>"}, "geometry": {"type": "Point", "coordinates": [-1.8595488537081064, 53.718088300512434]}}</feature>
    <feature xml:id="id-790" type="Point">{"type": "Feature", "properties": {"name": "Winkfield", "place_type": "settlement", "is_approximate": false, "placeholder_coordinates": null, "container": 21, "patrons_label_flag": 2, "symbol_flag": 2, "notes": "", "pk": "790", "eats_name": "<eats_name/>", "eats_url": "<eats_url/>", "record_title": "<record_title/>", "record_url": "<record_url/>"}, "geometry": {"type": "Point", "coordinates": [-0.6984719999999958, 51.442595999999995]}}</feature>
    <feature xml:id="id-988" type="Point">{"type": "Feature", "properties": {"name": "Town Hall", "place_type": "town hall", "is_approximate": false, "placeholder_coordinates": null, "container": 640, "patrons_label_flag": 3, "symbol_flag": 3, "notes": "", "pk": "988", "eats_name": "<eats_name/>", "eats_url": "<eats_url/>", "record_title": "<record_title/>", "record_url": "<record_url/>"}, "geometry": {"type": "Point", "coordinates": [-2.964588992891253, 50.87251614436598]}}</feature>
    <feature xml:id="id-985" type="Point">{"type": "Feature", "properties": {"name": "Town Hall", "place_type": "town hall", "is_approximate": false, "placeholder_coordinates": null, "container": 614, "patrons_label_flag": 3, "symbol_flag": 3, "notes": "", "pk": "985", "eats_name": "<eats_name/>", "eats_url": "<eats_url/>", "record_title": "<record_title/>", "record_url": "<record_url/>"}, "geometry": {"type": "Point", "coordinates": [-2.2208908730917463, 52.19119823302476]}}</feature>
    <feature xml:id="id-983" type="Point">{"type": "Feature", "properties": {"name": "Town Hall", "place_type": "town hall", "is_approximate": false, "placeholder_coordinates": null, "container": 638, "patrons_label_flag": 3, "symbol_flag": 3, "notes": "", "pk": "983", "eats_name": "<eats_name/>", "eats_url": "<eats_url/>", "record_title": "<record_title/>", "record_url": "<record_url/>"}, "geometry": {"type": "Point", "coordinates": [-2.4205810517081687, 52.537004567180105]}}</feature>
    <feature xml:id="id-758" type="Point">{"type": "Feature", "properties": {"name": "Henley on Thames", "place_type": "settlement", "is_approximate": false, "placeholder_coordinates": null, "container": 22, "patrons_label_flag": 2, "symbol_flag": 2, "notes": "", "pk": "758", "eats_name": "<eats_name/>", "eats_url": "<eats_url/>", "record_title": "<record_title/>", "record_url": "<record_url/>"}, "geometry": {"type": "Point", "coordinates": [-0.9010419999999928, 51.536733999999996]}}</feature>
    <feature xml:id="id-81" type="Point">{"type": "Feature", "properties": {"name": "Heptonstall", "place_type": "settlement", "is_approximate": false, "placeholder_coordinates": null, "container": 3, "patrons_label_flag": 1, "symbol_flag": 1, "notes": "", "pk": "81", "eats_name": "<eats_name/>", "eats_url": "<eats_url/>", "record_title": "<record_title/>", "record_url": "<record_url/>"}, "geometry": {"type": "Point", "coordinates": [-2.0205497626440203, 53.74949185783516]}}</feature>
    <feature xml:id="id-755" type="Point">{"type": "Feature", "properties": {"name": "Inkpen", "place_type": "settlement", "is_approximate": false, "placeholder_coordinates": null, "container": 21, "patrons_label_flag": 2, "symbol_flag": 2, "notes": "", "pk": "755", "eats_name": "<eats_name/>", "eats_url": "<eats_url/>", "record_title": "<record_title/>", "record_url": "<record_url/>"}, "geometry": {"type": "Point", "coordinates": [-1.488309999999993, 51.37345999999998]}}</feature>
    <feature xml:id="id-75" type="Point">{"type": "Feature", "properties": {"name": "Kendal", "place_type": "settlement", "is_approximate": false, "placeholder_coordinates": null, "container": 2, "patrons_label_flag": 1, "symbol_flag": 1, "notes": "", "pk": "75", "eats_name": "<eats_name/>", "eats_url": "<eats_url/>", "record_title": "<record_title/>", "record_url": "<record_url/>"}, "geometry": {"type": "Point", "coordinates": [-2.746068745209082, 54.328390971631215]}}</feature>
    <feature xml:id="id-760" type="Point">{"type": "Feature", "properties": {"name": "Abbey Church", "place_type": "church", "is_approximate": false, "placeholder_coordinates": null, "container": 144, "patrons_label_flag": 3, "symbol_flag": 3, "notes": "", "pk": "760", "eats_name": "<eats_name/>", "eats_url": "<eats_url/>", "record_title": "<record_title/>", "record_url": "<record_url/>"}, "geometry": {"type": "Point", "coordinates": [-0.965083999999992, 51.45633999999999]}}</feature>
    <feature xml:id="id-778" type="Point">{"type": "Feature", "properties": {"name": "St Helen's Church", "place_type": "church", "is_approximate": false, "placeholder_coordinates": null, "container": 142, "patrons_label_flag": 3, "symbol_flag": 3, "notes": "", "pk": "778", "eats_name": "<eats_name/>", "eats_url": "<eats_url/>", "record_title": "<record_title/>", "record_url": "<record_url/>"}, "geometry": {"type": "Point", "coordinates": [-1.2828759999999944, 51.66752999999997]}}</feature>
    <feature xml:id="id-767" type="Point">{"type": "Feature", "properties": {"name": "St John the Baptist's Church", "place_type": "church", "is_approximate": false, "placeholder_coordinates": null, "container": 1037, "patrons_label_flag": 3, "symbol_flag": 3, "notes": "", "pk": "767", "eats_name": "<eats_name/>", "eats_url": "<eats_url/>", "record_title": "<record_title/>", "record_url": "<record_url/>"}, "geometry": {"type": "Point", "coordinates": [-0.6061890000000071, 51.481789999999975]}}</feature>
    <feature xml:id="id-757" type="Point">{"type": "Feature", "properties": {"name": "St Laurence's Church", "place_type": "church", "is_approximate": false, "placeholder_coordinates": null, "container": 144, "patrons_label_flag": 3, "symbol_flag": 3, "notes": "", "pk": "757", "eats_name": "<eats_name/>", "eats_url": "<eats_url/>", "record_title": "<record_title/>", "record_url": "<record_url/>"}, "geometry": {"type": "Point", "coordinates": [-0.9693470000000037, 51.456409999999984]}}</feature>
    <feature xml:id="id-782" type="Point">{"type": "Feature", "properties": {"name": "St Mary's Church", "place_type": "church", "is_approximate": false, "placeholder_coordinates": null, "container": 781, "patrons_label_flag": 3, "symbol_flag": 3, "notes": "", "pk": "782", "eats_name": "<eats_name/>", "eats_url": "<eats_url/>", "record_title": "<record_title/>", "record_url": "<record_url/>"}, "geometry": {"type": "Point", "coordinates": [-1.2590430000000048, 51.40187999999999]}}</feature>
    <feature xml:id="id-774" type="Point">{"type": "Feature", "properties": {"name": "St Mary's Church", "place_type": "church", "is_approximate": false, "placeholder_coordinates": null, "container": 144, "patrons_label_flag": 3, "symbol_flag": 3, "notes": "", "pk": "774", "eats_name": "<eats_name/>", "eats_url": "<eats_url/>", "record_title": "<record_title/>", "record_url": "<record_url/>"}, "geometry": {"type": "Point", "coordinates": [-0.9737040000000053, 51.45457999999998]}}</feature>
    <feature xml:id="id-779" type="Point">{"type": "Feature", "properties": {"name": "St Michael's Church", "place_type": "church", "is_approximate": false, "placeholder_coordinates": null, "container": 446, "patrons_label_flag": 3, "symbol_flag": 3, "notes": "", "pk": "779", "eats_name": "<eats_name/>", "eats_url": "<eats_url/>", "record_title": "<record_title/>", "record_url": "<record_url/>"}, "geometry": {"type": "Point", "coordinates": [-0.7021430000000075, 51.50909999999999]}}</feature>
    <feature xml:id="id-770" type="Point">{"type": "Feature", "properties": {"name": "St Peter and Paul's Church", "place_type": "church", "is_approximate": false, "placeholder_coordinates": null, "container": 769, "patrons_label_flag": 3, "symbol_flag": 3, "notes": "", "pk": "770", "eats_name": "<eats_name/>", "eats_url": "<eats_url/>", "record_title": "<record_title/>", "record_url": "<record_url/>"}, "geometry": {"type": "Point", "coordinates": [-1.428496999999998, 51.58868999999999]}}</feature>
    <feature xml:id="id-408" type="Point">{"type": "Feature", "properties": {"name": "Abbot's Hall, Boxley Abbey", "place_type": "religious house", "is_approximate": false, "placeholder_coordinates": null, "container": 14, "patrons_label_flag": 2, "symbol_flag": 2, "notes": "", "pk": "408", "eats_name": "<eats_name/>", "eats_url": "<eats_url/>", "record_title": "<record_title/>", "record_url": "<record_url/>"}, "geometry": {"type": "Point", "coordinates": [0.5246648972592203, 51.29992476842814]}}</feature>
    <feature xml:id="id-745" type="Point">{"type": "Feature", "properties": {"name": "Aldworth", "place_type": "settlement", "is_approximate": false, "placeholder_coordinates": null, "container": 21, "patrons_label_flag": 2, "symbol_flag": 2, "notes": "", "pk": "745", "eats_name": "<eats_name/>", "eats_url": "<eats_url/>", "record_title": "<record_title/>", "record_url": "<record_url/>"}, "geometry": {"type": "Point", "coordinates": [-1.202176000000005, 51.50967999999999]}}</feature>
    <feature xml:id="id-785" type="Point">{"type": "Feature", "properties": {"name": "Appleton", "place_type": "settlement", "is_approximate": false, "placeholder_coordinates": null, "container": 21, "patrons_label_flag": 2, "symbol_flag": 2, "notes": "", "pk": "785", "eats_name": "<eats_name/>", "eats_url": "<eats_url/>", "record_title": "<record_title/>", "record_url": "<record_url/>"}, "geometry": {"type": "Point", "coordinates": [-1.3604420000000088, 51.71161999999999]}}</feature>
    <feature xml:id="id-752" type="Point">{"type": "Feature", "properties": {"name": "Aston Tirrold", "place_type": "settlement", "is_approximate": false, "placeholder_coordinates": null, "container": 21, "patrons_label_flag": 2, "symbol_flag": 2, "notes": "", "pk": "752", "eats_name": "<eats_name/>", "eats_url": "<eats_url/>", "record_title": "<record_title/>", "record_url": "<record_url/>"}, "geometry": {"type": "Point", "coordinates": [-1.1980850000000116, 51.56978999999998]}}</feature>
    <feature xml:id="id-76" type="Point">{"type": "Feature", "properties": {"name": "Blackburn", "place_type": "settlement", "is_approximate": false, "placeholder_coordinates": null, "container": 18, "patrons_label_flag": 1, "symbol_flag": 1, "notes": "", "pk": "76", "eats_name": "<eats_name/>", "eats_url": "<eats_url/>", "record_title": "<record_title/>", "record_url": "<record_url/>"}, "geometry": {"type": "Point", "coordinates": [-2.476233683209214, 53.7450681816322]}}</feature>
    <feature xml:id="id-762" type="Point">{"type": "Feature", "properties": {"name": "Blewbury", "place_type": "settlement", "is_approximate": false, "placeholder_coordinates": null, "container": 21, "patrons_label_flag": 2, "symbol_flag": 2, "notes": "", "pk": "762", "eats_name": "<eats_name/>", "eats_url": "<eats_url/>", "record_title": "<record_title/>", "record_url": "<record_url/>"}, "geometry": {"type": "Point", "coordinates": [-1.2348129999999977, 51.56934499999999]}}</feature>
    <feature xml:id="id-78" type="Point">{"type": "Feature", "properties": {"name": "Bolton", "place_type": "settlement", "is_approximate": false, "placeholder_coordinates": null, "container": 18, "patrons_label_flag": 1, "symbol_flag": 1, "notes": "", "pk": "78", "eats_name": "<eats_name/>", "eats_url": "<eats_url/>", "record_title": "<record_title/>", "record_url": "<record_url/>"}, "geometry": {"type": "Point", "coordinates": [-2.4260217934478545, 53.57633236597117]}}</feature>
    <feature xml:id="id-84" type="Point">{"type": "Feature", "properties": {"name": "Bradford", "place_type": "settlement", "is_approximate": false, "placeholder_coordinates": null, "container": 3, "patrons_label_flag": 1, "symbol_flag": 1, "notes": "", "pk": "84", "eats_name": "<eats_name/>", "eats_url": "<eats_url/>", "record_title": "<record_title/>", "record_url": "<record_url/>"}, "geometry": {"type": "Point", "coordinates": [-1.7410374815666363, 53.78960669118915]}}</feature>
    <feature xml:id="id-788" type="Point">{"type": "Feature", "properties": {"name": "Brightwalton", "place_type": "settlement", "is_approximate": false, "placeholder_coordinates": null, "container": 21, "patrons_label_flag": 2, "symbol_flag": 2, "notes": "", "pk": "788", "eats_name": "<eats_name/>", "eats_url": "<eats_url/>", "record_title": "<record_title/>", "record_url": "<record_url/>"}, "geometry": {"type": "Point", "coordinates": [-1.3877239999999973, 51.51096999999999]}}</feature>
    <feature xml:id="id-793" type="Point">{"type": "Feature", "properties": {"name": "Kintbury", "place_type": "settlement", "is_approximate": false, "placeholder_coordinates": null, "container": 21, "patrons_label_flag": 2, "symbol_flag": 2, "notes": "", "pk": "793", "eats_name": "<eats_name/>", "eats_url": "<eats_url/>", "record_title": "<record_title/>", "record_url": "<record_url/>"}, "geometry": {"type": "Point", "coordinates": [-1.4485120000000054, 51.39939999999998]}}</feature>
    <feature xml:id="id-980" type="Point">{"type": "Feature", "properties": {"name": "Common Hall", "place_type": "town hall", "is_approximate": false, "placeholder_coordinates": null, "container": 66, "patrons_label_flag": 3, "symbol_flag": 3, "notes": "", "pk": "980", "eats_name": "<eats_name/>", "eats_url": "<eats_url/>", "record_title": "<record_title/>", "record_url": "<record_url/>"}, "geometry": {"type": "Point", "coordinates": [-2.8916291020211013, 53.191451716987906]}}</feature>
    <feature xml:id="id-88" type="Point">{"type": "Feature", "properties": {"name": "Wakefield", "place_type": "settlement", "is_approximate": false, "placeholder_coordinates": null, "container": 3, "patrons_label_flag": 1, "symbol_flag": 1, "notes": "", "pk": "88", "eats_name": "<eats_name/>", "eats_url": "<eats_url/>", "record_title": "<record_title/>", "record_url": "<record_url/>"}, "geometry": {"type": "Point", "coordinates": [-1.4921027334598524, 53.68027032858122]}}</feature>
    <feature xml:id="id-93" type="Point">{"type": "Feature", "properties": {"name": "Wetherby", "place_type": "settlement", "is_approximate": false, "placeholder_coordinates": null, "container": 3, "patrons_label_flag": 1, "symbol_flag": 1, "notes": "", "pk": "93", "eats_name": "<eats_name/>", "eats_url": "<eats_url/>", "record_title": "<record_title/>", "record_url": "<record_url/>"}, "geometry": {"type": "Point", "coordinates": [-1.3768499083833616, 53.92885871824457]}}</feature>
    <feature xml:id="id-1023" type="Point">{"type": "Feature", "properties": {"name": "Abbot's House", "place_type": "religious house", "is_approximate": false, "placeholder_coordinates": null, "container": 615, "patrons_label_flag": 3, "symbol_flag": 3, "notes": "", "pk": "1023", "eats_name": "<eats_name/>", "eats_url": "<eats_url/>", "record_title": "<record_title/>", "record_url": "<record_url/>"}, "geometry": {"type": "Point", "coordinates": [-2.7437784706293065, 52.70758960919908]}}</feature>
    <feature xml:id="id-1024" type="Point">{"type": "Feature", "properties": {"name": "Court Hall", "place_type": "town hall", "is_approximate": false, "placeholder_coordinates": null, "container": 1311, "patrons_label_flag": 3, "symbol_flag": 3, "notes": "", "pk": "1024", "eats_name": "<eats_name/>", "eats_url": "<eats_url/>", "record_title": "<record_title/>", "record_url": "<record_url/>"}, "geometry": {"type": "Point", "coordinates": [1.0795849535745592, 51.27942812009225]}}</feature>
    <feature xml:id="id-1029" type="Point">{"type": "Feature", "properties": {"name": "Louth", "place_type": "settlement", "is_approximate": false, "placeholder_coordinates": null, "container": 60, "patrons_label_flag": 1, "symbol_flag": 1, "notes": "", "pk": "1029", "eats_name": "<eats_name/>", "eats_url": "<eats_url/>", "record_title": "<record_title/>", "record_url": "<record_url/>"}, "geometry": {"type": "Point", "coordinates": [-0.002874819114979362, 53.365726074222586]}}</feature>
    <feature xml:id="id-1034" type="Point">{"type": "Feature", "properties": {"name": "Walsall", "place_type": "settlement", "is_approximate": false, "placeholder_coordinates": null, "container": 4, "patrons_label_flag": 2, "symbol_flag": 2, "notes": "", "pk": "1034", "eats_name": "<eats_name/>", "eats_url": "<eats_url/>", "record_title": "<record_title/>", "record_url": "<record_url/>"}, "geometry": {"type": "Point", "coordinates": [-1.9772329879656756, 52.582442996705275]}}</feature>
    <feature xml:id="id-769" type="Point">{"type": "Feature", "properties": {"name": "Wantage", "place_type": "settlement", "is_approximate": false, "placeholder_coordinates": null, "container": 21, "patrons_label_flag": 2, "symbol_flag": 2, "notes": "", "pk": "769", "eats_name": "<eats_name/>", "eats_url": "<eats_url/>", "record_title": "<record_title/>", "record_url": "<record_url/>"}, "geometry": {"type": "Point", "coordinates": [-1.4290879999999941, 51.59002999999999]}}</feature>
    <feature xml:id="id-1026" type="Point">{"type": "Feature", "properties": {"name": "Red Lion Inn", "place_type": "victualling-house", "is_approximate": false, "placeholder_coordinates": null, "container": 514, "patrons_label_flag": 3, "symbol_flag": 3, "notes": "", "pk": "1026", "eats_name": "<eats_name/>", "eats_url": "<eats_url/>", "record_title": "<record_title/>", "record_url": "<record_url/>"}, "geometry": {"type": "Point", "coordinates": [1.0764480635518685, 51.28133461730737]}}</feature>
    <feature xml:id="id-1027" type="Point">{"type": "Feature", "properties": {"name": "Abbot's House", "place_type": "religious house", "is_approximate": false, "placeholder_coordinates": null, "container": 1291, "patrons_label_flag": 3, "symbol_flag": 3, "notes": "", "pk": "1027", "eats_name": "<eats_name/>", "eats_url": "<eats_url/>", "record_title": "<record_title/>", "record_url": "<record_url/>"}, "geometry": {"type": "Point", "coordinates": [-2.246463746087414, 51.86746406763468]}}</feature>
    <feature xml:id="id-115" type="Point">{"type": "Feature", "properties": {"name": "Ludlow", "place_type": "settlement", "is_approximate": false, "placeholder_coordinates": null, "container": 32, "patrons_label_flag": 1, "symbol_flag": 1, "notes": "", "pk": "115", "eats_name": "<eats_name/>", "eats_url": "<eats_url/>", "record_title": "<record_title/>", "record_url": "<record_url/>"}, "geometry": {"type": "Point", "coordinates": [-2.720141641344074, 52.36648732152375]}}</feature>
    <feature xml:id="id-704" type="Point">{"type": "Feature", "properties": {"name": "St Peter's Church", "place_type": "church", "is_approximate": false, "placeholder_coordinates": null, "container": 703, "patrons_label_flag": 2, "symbol_flag": 2, "notes": "", "pk": "704", "eats_name": "<eats_name/>", "eats_url": "<eats_url/>", "record_title": "<record_title/>", "record_url": "<record_url/>"}, "geometry": {"type": "Point", "coordinates": [-2.227903988175482, 52.44514699630236]}}</feature>
    <feature xml:id="id-116" type="Point">{"type": "Feature", "properties": {"name": "Much Wenlock", "place_type": "settlement", "is_approximate": false, "placeholder_coordinates": null, "container": 32, "patrons_label_flag": 1, "symbol_flag": 1, "notes": "", "pk": "116", "eats_name": "<eats_name/>", "eats_url": "<eats_url/>", "record_title": "<record_title/>", "record_url": "<record_url/>"}, "geometry": {"type": "Point", "coordinates": [-2.549152883990263, 52.590349396304795]}}</feature>
    <feature xml:id="id-71" type="Point">{"type": "Feature", "properties": {"name": "Ormskirk", "place_type": "settlement", "is_approximate": false, "placeholder_coordinates": null, "container": 18, "patrons_label_flag": 1, "symbol_flag": 1, "notes": "", "pk": "71", "eats_name": "<eats_name/>", "eats_url": "<eats_url/>", "record_title": "<record_title/>", "record_url": "<record_url/>"}, "geometry": {"type": "Point", "coordinates": [-2.8847010295469824, 53.56544289473087]}}</feature>
    <feature xml:id="id-87" type="Point">{"type": "Feature", "properties": {"name": "Otley", "place_type": "settlement", "is_approximate": false, "placeholder_coordinates": null, "container": 3, "patrons_label_flag": 1, "symbol_flag": 1, "notes": "", "pk": "87", "eats_name": "<eats_name/>", "eats_url": "<eats_url/>", "record_title": "<record_title/>", "record_url": "<record_url/>"}, "geometry": {"type": "Point", "coordinates": [-1.6865654393681861, 53.903021242025396]}}</feature>
    <feature xml:id="id-1022" type="Point">{"type": "Feature", "properties": {"name": "Grafton Manor", "place_type": "residence", "is_approximate": false, "placeholder_coordinates": null, "container": 7, "patrons_label_flag": 2, "symbol_flag": 2, "notes": "", "pk": "1022", "eats_name": "<eats_name/>", "eats_url": "<eats_url/>", "record_title": "<record_title/>", "record_url": "<record_url/>"}, "geometry": {"type": "Point", "coordinates": [-2.09094644919149, 52.320637548396924]}}</feature>
    <feature xml:id="id-122" type="Point">{"type": "Feature", "properties": {"name": "Cirencester", "place_type": "settlement", "is_approximate": false, "placeholder_coordinates": null, "container": 42, "patrons_label_flag": 1, "symbol_flag": 1, "notes": "", "pk": "122", "eats_name": "<eats_name/>", "eats_url": "<eats_url/>", "record_title": "<record_title/>", "record_url": "<record_url/>"}, "geometry": {"type": "Point", "coordinates": [-1.9618690603388786, 51.709644205644146]}}</feature>
    <feature xml:id="id-112" type="Point">{"type": "Feature", "properties": {"name": "Syston", "place_type": "settlement", "is_approximate": false, "placeholder_coordinates": null, "container": 6, "patrons_label_flag": 1, "symbol_flag": 1, "notes": "", "pk": "112", "eats_name": "<eats_name/>", "eats_url": "<eats_url/>", "record_title": "<record_title/>", "record_url": "<record_url/>"}, "geometry": {"type": "Point", "coordinates": [-1.074746131897218, 52.699809651922614]}}</feature>
    <feature xml:id="id-118" type="Point">{"type": "Feature", "properties": {"name": "Boothall", "place_type": "guildhall", "is_approximate": false, "placeholder_coordinates": null, "container": 627, "patrons_label_flag": 3, "symbol_flag": 3, "notes": "", "pk": "118", "eats_name": "<eats_name/>", "eats_url": "<eats_url/>", "record_title": "<record_title/>", "record_url": "<record_url/>"}, "geometry": {"type": "Point", "coordinates": [-2.2495710420113566, 51.86691721580701]}}</feature>
    <feature xml:id="id-135" type="Point">{"type": "Feature", "properties": {"name": "Church House", "place_type": "church house", "is_approximate": false, "placeholder_coordinates": null, "container": 520, "patrons_label_flag": 3, "symbol_flag": 3, "notes": "", "pk": "135", "eats_name": "<eats_name/>", "eats_url": "<eats_url/>", "record_title": "<record_title/>", "record_url": "<record_url/>"}, "geometry": {"type": "Point", "coordinates": [-3.005566359635358, 51.128354557809104]}}</feature>
    <feature xml:id="id-97" type="Point">{"type": "Feature", "properties": {"name": "Prescot", "place_type": "settlement", "is_approximate": false, "placeholder_coordinates": null, "container": 18, "patrons_label_flag": 1, "symbol_flag": 1, "notes": "", "pk": "97", "eats_name": "<eats_name/>", "eats_url": "<eats_url/>", "record_title": "<record_title/>", "record_url": "<record_url/>"}, "geometry": {"type": "Point", "coordinates": [-2.8035874201003472, 53.428745474032965]}}</feature>
    <feature xml:id="id-991" type="Point">{"type": "Feature", "properties": {"name": "Church House", "place_type": "church house", "is_approximate": false, "placeholder_coordinates": null, "container": 605, "patrons_label_flag": 3, "symbol_flag": 3, "notes": "", "pk": "991", "eats_name": "<eats_name/>", "eats_url": "<eats_url/>", "record_title": "<record_title/>", "record_url": "<record_url/>"}, "geometry": {"type": "Point", "coordinates": [-2.515934277134883, 50.946616739718976]}}</feature>
    <feature xml:id="id-610" type="Point">{"type": "Feature", "properties": {"name": "St Andrew's Church", "place_type": "church", "is_approximate": false, "placeholder_coordinates": null, "container": 512, "patrons_label_flag": 3, "symbol_flag": 3, "notes": "", "pk": "610", "eats_name": "<eats_name/>", "eats_url": "<eats_url/>", "record_title": "<record_title/>", "record_url": "<record_url/>"}, "geometry": {"type": "Point", "coordinates": [-4.1398407800464545, 50.36966627802138]}}</feature>
    <feature xml:id="id-1356" type="Point">{"type": "Feature", "properties": {"name": "Owestry", "place_type": "settlement", "is_approximate": false, "placeholder_coordinates": null, "container": 32, "patrons_label_flag": 2, "symbol_flag": 2, "notes": "", "pk": "1356", "eats_name": "<eats_name/>", "eats_url": "<eats_url/>", "record_title": "<record_title/>", "record_url": "<record_url/>"}, "geometry": {"type": "Point", "coordinates": [-3.0555553434972276, 52.85863162307442]}}</feature>
    <feature xml:id="id-94" type="Point">{"type": "Feature", "properties": {"name": "Tadcaster", "place_type": "settlement", "is_approximate": false, "placeholder_coordinates": null, "container": 3, "patrons_label_flag": 1, "symbol_flag": 1, "notes": "", "pk": "94", "eats_name": "<eats_name/>", "eats_url": "<eats_url/>", "record_title": "<record_title/>", "record_url": "<record_url/>"}, "geometry": {"type": "Point", "coordinates": [-1.25684991373006, 53.880315196639174]}}</feature>
    <feature xml:id="id-768" type="Point">{"type": "Feature", "properties": {"name": "Cookham", "place_type": "settlement", "is_approximate": false, "placeholder_coordinates": null, "container": 21, "patrons_label_flag": 2, "symbol_flag": 2, "notes": "", "pk": "768", "eats_name": "<eats_name/>", "eats_url": "<eats_url/>", "record_title": "<record_title/>", "record_url": "<record_url/>"}, "geometry": {"type": "Point", "coordinates": [-0.7091510000000082, 51.55993999999999]}}</feature>
    <feature xml:id="id-108" type="Point">{"type": "Feature", "properties": {"name": "Tamworth", "place_type": "settlement", "is_approximate": false, "placeholder_coordinates": null, "container": 4, "patrons_label_flag": 1, "symbol_flag": 1, "notes": "", "pk": "108", "eats_name": "<eats_name/>", "eats_url": "<eats_url/>", "record_title": "<record_title/>", "record_url": "<record_url/>"}, "geometry": {"type": "Point", "coordinates": [-1.6953878943848253, 52.64176264696534]}}</feature>
    <feature xml:id="id-127" type="Point">{"type": "Feature", "properties": {"name": "Yardley", "place_type": "settlement", "is_approximate": false, "placeholder_coordinates": null, "container": 7, "patrons_label_flag": 1, "symbol_flag": 1, "notes": "", "pk": "127", "eats_name": "<eats_name/>", "eats_url": "<eats_url/>", "record_title": "<record_title/>", "record_url": "<record_url/>"}, "geometry": {"type": "Point", "coordinates": [-1.8033304183253567, 52.46215014508628]}}</feature>
    <feature xml:id="id-1035" type="Point">{"type": "Feature", "properties": {"name": "Town Hall", "place_type": "town hall", "is_approximate": false, "placeholder_coordinates": null, "container": 1034, "patrons_label_flag": 2, "symbol_flag": 2, "notes": "", "pk": "1035", "eats_name": "<eats_name/>", "eats_url": "<eats_url/>", "record_title": "<record_title/>", "record_url": "<record_url/>"}, "geometry": {"type": "Point", "coordinates": [-1.9772329879656756, 52.582442996705275]}}</feature>
    <feature xml:id="id-1033" type="Point">{"type": "Feature", "properties": {"name": "Town Hall", "place_type": "town hall", "is_approximate": false, "placeholder_coordinates": null, "container": 723, "patrons_label_flag": 3, "symbol_flag": 3, "notes": "", "pk": "1033", "eats_name": "<eats_name/>", "eats_url": "<eats_url/>", "record_title": "<record_title/>", "record_url": "<record_url/>"}, "geometry": {"type": "Point", "coordinates": [-2.116788986553984, 52.80723199638323]}}</feature>
    <feature xml:id="id-95" type="Point">{"type": "Feature", "properties": {"name": "Doncaster", "place_type": "settlement", "is_approximate": false, "placeholder_coordinates": null, "container": 3, "patrons_label_flag": 1, "symbol_flag": 1, "notes": "", "pk": "95", "eats_name": "<eats_name/>", "eats_url": "<eats_url/>", "record_title": "<record_title/>", "record_url": "<record_url/>"}, "geometry": {"type": "Point", "coordinates": [-1.1327556935574876, 53.52456455558855]}}</feature>
    <feature xml:id="id-124" type="Point">{"type": "Feature", "properties": {"name": "Evesham", "place_type": "settlement", "is_approximate": false, "placeholder_coordinates": null, "container": 7, "patrons_label_flag": 1, "symbol_flag": 1, "notes": "", "pk": "124", "eats_name": "<eats_name/>", "eats_url": "<eats_url/>", "record_title": "<record_title/>", "record_url": "<record_url/>"}, "geometry": {"type": "Point", "coordinates": [-1.9502857015684183, 52.08924983928963]}}</feature>
    <feature xml:id="id-1025" type="Point">{"type": "Feature", "properties": {"name": "Town Hall", "place_type": "town hall", "is_approximate": false, "placeholder_coordinates": null, "container": 176, "patrons_label_flag": 3, "symbol_flag": 3, "notes": "", "pk": "1025", "eats_name": "<eats_name/>", "eats_url": "<eats_url/>", "record_title": "<record_title/>", "record_url": "<record_url/>"}, "geometry": {"type": "Point", "coordinates": [1.3134526187469195, 51.12479202885231]}}</feature>
    <feature xml:id="id-1021" type="Point">{"type": "Feature", "properties": {"name": "Town Hall", "place_type": "town hall", "is_approximate": false, "placeholder_coordinates": null, "container": 520, "patrons_label_flag": 3, "symbol_flag": 3, "notes": "", "pk": "1021", "eats_name": "<eats_name/>", "eats_url": "<eats_url/>", "record_title": "<record_title/>", "record_url": "<record_url/>"}, "geometry": {"type": "Point", "coordinates": [-3.003133566437438, 51.12871913104125]}}</feature>
    <feature xml:id="id-1018" type="Point">{"type": "Feature", "properties": {"name": "Town Hall", "place_type": "town hall", "is_approximate": false, "placeholder_coordinates": null, "container": 624, "patrons_label_flag": 3, "symbol_flag": 3, "notes": "", "pk": "1018", "eats_name": "<eats_name/>", "eats_url": "<eats_url/>", "record_title": "<record_title/>", "record_url": "<record_url/>"}, "geometry": {"type": "Point", "coordinates": [-2.4548610279531666, 50.60798666302831]}}</feature>
    <feature xml:id="id-72" type="Point">{"type": "Feature", "properties": {"name": "Garstang", "place_type": "settlement", "is_approximate": false, "placeholder_coordinates": null, "container": 18, "patrons_label_flag": 1, "symbol_flag": 1, "notes": "", "pk": "72", "eats_name": "<eats_name/>", "eats_url": "<eats_url/>", "record_title": "<record_title/>", "record_url": "<record_url/>"}, "geometry": {"type": "Point", "coordinates": [-2.766509445070225, 53.90125998278051]}}</feature>
    <feature xml:id="id-1012" type="Point">{"type": "Feature", "properties": {"name": "Town Hall", "place_type": "town hall", "is_approximate": false, "placeholder_coordinates": null, "container": 558, "patrons_label_flag": 3, "symbol_flag": 3, "notes": "", "pk": "1012", "eats_name": "<eats_name/>", "eats_url": "<eats_url/>", "record_title": "<record_title/>", "record_url": "<record_url/>"}, "geometry": {"type": "Point", "coordinates": [1.1811086240429012, 51.080095960355685]}}</feature>
    <feature xml:id="id-119" type="Point">{"type": "Feature", "properties": {"name": "Grimley Manor", "place_type": "residence", "is_approximate": false, "placeholder_coordinates": null, "container": 7, "patrons_label_flag": 3, "symbol_flag": 3, "notes": "", "pk": "119", "eats_name": "<eats_name/>", "eats_url": "<eats_url/>", "record_title": "<record_title/>", "record_url": "<record_url/>"}, "geometry": {"type": "Point", "coordinates": [-2.2428075507787333, 52.24067695778638]}}</feature>
    <feature xml:id="id-1032" type="Point">{"type": "Feature", "properties": {"name": "Guildhall", "place_type": "guildhall", "is_approximate": false, "placeholder_coordinates": null, "container": 715, "patrons_label_flag": 3, "symbol_flag": 3, "notes": "", "pk": "1032", "eats_name": "<eats_name/>", "eats_url": "<eats_url/>", "record_title": "<record_title/>", "record_url": "<record_url/>"}, "geometry": {"type": "Point", "coordinates": [-2.227015987347469, 53.01080999739224]}}</feature>
    <feature xml:id="id-1011" type="Point">{"type": "Feature", "properties": {"name": "Town Hall", "place_type": "town hall", "is_approximate": false, "placeholder_coordinates": null, "container": 631, "patrons_label_flag": 3, "symbol_flag": 3, "notes": "", "pk": "1011", "eats_name": "<eats_name/>", "eats_url": "<eats_url/>", "record_title": "<record_title/>", "record_url": "<record_url/>"}, "geometry": {"type": "Point", "coordinates": [1.125259542667346, 51.2954688398613]}}</feature>
    <feature xml:id="id-1020" type="Point">{"type": "Feature", "properties": {"name": "Guildhall", "place_type": "guildhall", "is_approximate": false, "placeholder_coordinates": null, "container": 55, "patrons_label_flag": 3, "symbol_flag": 3, "notes": "", "pk": "1020", "eats_name": "<eats_name/>", "eats_url": "<eats_url/>", "record_title": "<record_title/>", "record_url": "<record_url/>"}, "geometry": {"type": "Point", "coordinates": [1.2927110847752454, 52.6286337820082]}}</feature>
    <feature xml:id="id-1009" type="Point">{"type": "Feature", "properties": {"name": "Town Hall", "place_type": "town hall", "is_approximate": false, "placeholder_coordinates": null, "container": 562, "patrons_label_flag": 1, "symbol_flag": 1, "notes": "", "pk": "1009", "eats_name": "<eats_name/>", "eats_url": "<eats_url/>", "record_title": "<record_title/>", "record_url": "<record_url/>"}, "geometry": {"type": "Point", "coordinates": [0.9395657449981951, 50.98536548544509]}}</feature>
    <feature xml:id="id-1019" type="Point">{"type": "Feature", "properties": {"name": "Guildhall", "place_type": "guildhall", "is_approximate": false, "placeholder_coordinates": null, "container": 68, "patrons_label_flag": 3, "symbol_flag": 3, "notes": "", "pk": "1019", "eats_name": "<eats_name/>", "eats_url": "<eats_url/>", "record_title": "<record_title/>", "record_url": "<record_url/>"}, "geometry": {"type": "Point", "coordinates": [0.11930610897836937, 52.204791025229106]}}</feature>
    <feature xml:id="id-1037" type="Point">{"type": "Feature", "properties": {"name": "Windsor", "place_type": "settlement", "is_approximate": false, "placeholder_coordinates": null, "container": 21, "patrons_label_flag": 3, "symbol_flag": 3, "notes": "", "pk": "1037", "eats_name": "<eats_name/>", "eats_url": "<eats_url/>", "record_title": "<record_title/>", "record_url": "<record_url/>"}, "geometry": {"type": "Point", "coordinates": [-0.6076188969064802, 51.483428196370554]}}</feature>
    <feature xml:id="id-1008" type="Point">{"type": "Feature", "properties": {"name": "Guildhall", "place_type": "guildhall", "is_approximate": false, "placeholder_coordinates": null, "container": 634, "patrons_label_flag": 3, "symbol_flag": 3, "notes": "", "pk": "1008", "eats_name": "<eats_name/>", "eats_url": "<eats_url/>", "record_title": "<record_title/>", "record_url": "<record_url/>"}, "geometry": {"type": "Point", "coordinates": [0.5029922163763848, 51.390942226844814]}}</feature>
    <feature xml:id="id-1007" type="Point">{"type": "Feature", "properties": {"name": "Town Hall", "place_type": "town hall", "is_approximate": false, "placeholder_coordinates": null, "container": 633, "patrons_label_flag": 3, "symbol_flag": 3, "notes": "", "pk": "1007", "eats_name": "<eats_name/>", "eats_url": "<eats_url/>", "record_title": "<record_title/>", "record_url": "<record_url/>"}, "geometry": {"type": "Point", "coordinates": [0.5219100966594621, 51.273666892589375]}}</feature>
    <feature xml:id="id-1006" type="Point">{"type": "Feature", "properties": {"name": "Town Hall", "place_type": "town hall", "is_approximate": false, "placeholder_coordinates": null, "container": 642, "patrons_label_flag": 3, "symbol_flag": 3, "notes": "", "pk": "1006", "eats_name": "<eats_name/>", "eats_url": "<eats_url/>", "record_title": "<record_title/>", "record_url": "<record_url/>"}, "geometry": {"type": "Point", "coordinates": [0.00870674302489747, 50.87273319713212]}}</feature>
    <feature xml:id="id-1005" type="Point">{"type": "Feature", "properties": {"name": "Town Hall", "place_type": "town hall", "is_approximate": false, "placeholder_coordinates": null, "container": 655, "patrons_label_flag": 3, "symbol_flag": 3, "notes": "", "pk": "1005", "eats_name": "<eats_name/>", "eats_url": "<eats_url/>", "record_title": "<record_title/>", "record_url": "<record_url/>"}, "geometry": {"type": "Point", "coordinates": [0.47287040144439163, 51.73468609617024]}}</feature>
    <feature xml:id="id-1002" type="Point">{"type": "Feature", "properties": {"name": "Town Hall", "place_type": "town hall", "is_approximate": false, "placeholder_coordinates": null, "container": 622, "patrons_label_flag": 3, "symbol_flag": 3, "notes": "", "pk": "1002", "eats_name": "<eats_name/>", "eats_url": "<eats_url/>", "record_title": "<record_title/>", "record_url": "<record_url/>"}, "geometry": {"type": "Point", "coordinates": [-1.9866634137834354, 50.715397399675396]}}</feature>
    <feature xml:id="id-747" type="Point">{"type": "Feature", "properties": {"name": "All Saints' Church", "place_type": "church", "is_approximate": false, "placeholder_coordinates": null, "container": 746, "patrons_label_flag": 3, "symbol_flag": 3, "notes": "", "pk": "747", "eats_name": "<eats_name/>", "eats_url": "<eats_url/>", "record_title": "<record_title/>", "record_url": "<record_url/>"}, "geometry": {"type": "Point", "coordinates": [-1.6611480000000083, 51.64231]}}</feature>
    <feature xml:id="id-229" type="Point">{"type": "Feature", "properties": {"name": "Abbot's House", "place_type": "religious house", "is_approximate": false, "placeholder_coordinates": null, "container": 15, "patrons_label_flag": 3, "symbol_flag": 3, "notes": "", "pk": "229", "eats_name": "<eats_name/>", "eats_url": "<eats_url/>", "record_title": "<record_title/>", "record_url": "<record_url/>"}, "geometry": {"type": "Point", "coordinates": [0.49809178343232385, 50.98727229944087]}}</feature>
    <feature xml:id="id-117" type="Point">{"type": "Feature", "properties": {"name": "Bewdley", "place_type": "settlement", "is_approximate": false, "placeholder_coordinates": null, "container": 7, "patrons_label_flag": 1, "symbol_flag": 1, "notes": "", "pk": "117", "eats_name": "<eats_name/>", "eats_url": "<eats_url/>", "record_title": "<record_title/>", "record_url": "<record_url/>"}, "geometry": {"type": "Point", "coordinates": [-2.3155016651906504, 52.37539743475093]}}</feature>
    <feature xml:id="id-1004" type="Point">{"type": "Feature", "properties": {"name": "Common Hall", "place_type": "town hall", "is_approximate": false, "placeholder_coordinates": null, "container": 55, "patrons_label_flag": 3, "symbol_flag": 3, "notes": "", "pk": "1004", "eats_name": "<eats_name/>", "eats_url": "<eats_url/>", "record_title": "<record_title/>", "record_url": "<record_url/>"}, "geometry": {"type": "Point", "coordinates": [1.2960384454859213, 52.63094723814753]}}</feature>
    <feature xml:id="id-120" type="Point">{"type": "Feature", "properties": {"name": "Chaddesley Corbett", "place_type": "settlement", "is_approximate": false, "placeholder_coordinates": null, "container": 7, "patrons_label_flag": 1, "symbol_flag": 1, "notes": "", "pk": "120", "eats_name": "<eats_name/>", "eats_url": "<eats_url/>", "record_title": "<record_title/>", "record_url": "<record_url/>"}, "geometry": {"type": "Point", "coordinates": [-2.154165980199498, 52.35664194836881]}}</feature>
    <feature xml:id="id-1003" type="Point">{"type": "Feature", "properties": {"name": "Guildhall", "place_type": "guildhall", "is_approximate": false, "placeholder_coordinates": null, "container": 635, "patrons_label_flag": 3, "symbol_flag": 3, "notes": "", "pk": "1003", "eats_name": "<eats_name/>", "eats_url": "<eats_url/>", "record_title": "<record_title/>", "record_url": "<record_url/>"}, "geometry": {"type": "Point", "coordinates": [-0.024387109397053013, 52.97611974152522]}}</feature>
    <feature xml:id="id-999" type="Point">{"type": "Feature", "properties": {"name": "Guildhall", "place_type": "guildhall", "is_approximate": false, "placeholder_coordinates": null, "container": 56, "patrons_label_flag": 3, "symbol_flag": 3, "notes": "", "pk": "999", "eats_name": "<eats_name/>", "eats_url": "<eats_url/>", "record_title": "<record_title/>", "record_url": "<record_url/>"}, "geometry": {"type": "Point", "coordinates": [-3.5320618042546643, 50.72336494274968]}}</feature>
    <feature xml:id="id-998" type="Point">{"type": "Feature", "properties": {"name": "Guildhall", "place_type": "guildhall", "is_approximate": false, "placeholder_coordinates": null, "container": 620, "patrons_label_flag": 3, "symbol_flag": 3, "notes": "", "pk": "998", "eats_name": "<eats_name/>", "eats_url": "<eats_url/>", "record_title": "<record_title/>", "record_url": "<record_url/>"}, "geometry": {"type": "Point", "coordinates": [-3.6888565378239377, 50.43284084446107]}}</feature>
    <feature xml:id="id-997" type="Point">{"type": "Feature", "properties": {"name": "Guildhall", "place_type": "guildhall", "is_approximate": false, "placeholder_coordinates": null, "container": 512, "patrons_label_flag": 3, "symbol_flag": 3, "notes": "", "pk": "997", "eats_name": "<eats_name/>", "eats_url": "<eats_url/>", "record_title": "<record_title/>", "record_url": "<record_url/>"}, "geometry": {"type": "Point", "coordinates": [-4.1398574976938995, 50.370037777490175]}}</feature>
    <feature xml:id="id-996" type="Point">{"type": "Feature", "properties": {"name": "Guildhall", "place_type": "guildhall", "is_approximate": false, "placeholder_coordinates": null, "container": 616, "patrons_label_flag": 3, "symbol_flag": 3, "notes": "", "pk": "996", "eats_name": "<eats_name/>", "eats_url": "<eats_url/>", "record_title": "<record_title/>", "record_url": "<record_url/>"}, "geometry": {"type": "Point", "coordinates": [-4.361191732376616, 50.6385198623471]}}</feature>
    <feature xml:id="id-992" type="Point">{"type": "Feature", "properties": {"name": "Guildhall", "place_type": "guildhall", "is_approximate": false, "placeholder_coordinates": null, "container": 608, "patrons_label_flag": 3, "symbol_flag": 3, "notes": "", "pk": "992", "eats_name": "<eats_name/>", "eats_url": "<eats_url/>", "record_title": "<record_title/>", "record_url": "<record_url/>"}, "geometry": {"type": "Point", "coordinates": [-2.358743296693791, 51.3822097089561]}}</feature>
    <feature xml:id="id-85" type="Point">{"type": "Feature", "properties": {"name": "Ilkley", "place_type": "settlement", "is_approximate": false, "placeholder_coordinates": null, "container": 3, "patrons_label_flag": 1, "symbol_flag": 1, "notes": "", "pk": "85", "eats_name": "<eats_name/>", "eats_url": "<eats_url/>", "record_title": "<record_title/>", "record_url": "<record_url/>"}, "geometry": {"type": "Point", "coordinates": [-1.8241083511340486, 53.92457530000471]}}</feature>
    <feature xml:id="id-125" type="Point">{"type": "Feature", "properties": {"name": "Inkberrow", "place_type": "settlement", "is_approximate": false, "placeholder_coordinates": null, "container": 7, "patrons_label_flag": 1, "symbol_flag": 1, "notes": "", "pk": "125", "eats_name": "<eats_name/>", "eats_url": "<eats_url/>", "record_title": "<record_title/>", "record_url": "<record_url/>"}, "geometry": {"type": "Point", "coordinates": [-1.9736791440055381, 52.210998896697596]}}</feature>
    <feature xml:id="id-114" type="Point">{"type": "Feature", "properties": {"name": "Kingsland", "place_type": "settlement", "is_approximate": false, "placeholder_coordinates": null, "container": 30, "patrons_label_flag": 1, "symbol_flag": 1, "notes": "", "pk": "114", "eats_name": "<eats_name/>", "eats_url": "<eats_url/>", "record_title": "<record_title/>", "record_url": "<record_url/>"}, "geometry": {"type": "Point", "coordinates": [-2.808672619430396, 52.246511212502966]}}</feature>
    <feature xml:id="id-90" type="Point">{"type": "Feature", "properties": {"name": "Knaresborough", "place_type": "settlement", "is_approximate": false, "placeholder_coordinates": null, "container": 3, "patrons_label_flag": 1, "symbol_flag": 1, "notes": "", "pk": "90", "eats_name": "<eats_name/>", "eats_url": "<eats_url/>", "record_title": "<record_title/>", "record_url": "<record_url/>"}, "geometry": {"type": "Point", "coordinates": [-1.4634267111635233, 54.00862096675078]}}</feature>
    <feature xml:id="id-1015" type="Point">{"type": "Feature", "properties": {"name": "Lea Hall", "place_type": "residence", "is_approximate": false, "placeholder_coordinates": null, "container": 17, "patrons_label_flag": 2, "symbol_flag": 2, "notes": "", "pk": "1015", "eats_name": "<eats_name/>", "eats_url": "<eats_url/>", "record_title": "<record_title/>", "record_url": "<record_url/>"}, "geometry": {"type": "Point", "coordinates": [-2.913032944088856, 53.23613170536055]}}</feature>
    <feature xml:id="id-1030" type="Point">{"type": "Feature", "properties": {"name": "Leicester", "place_type": "settlement", "is_approximate": false, "placeholder_coordinates": null, "container": 6, "patrons_label_flag": 1, "symbol_flag": 1, "notes": "", "pk": "1030", "eats_name": "<eats_name/>", "eats_url": "<eats_url/>", "record_title": "<record_title/>", "record_url": "<record_url/>"}, "geometry": {"type": "Point", "coordinates": [-1.1372509863083993, 52.634632996561066]}}</feature>
    <feature xml:id="id-1001" type="Point">{"type": "Feature", "properties": {"name": "Town Hall", "place_type": "town hall", "is_approximate": false, "placeholder_coordinates": null, "container": 623, "patrons_label_flag": 3, "symbol_flag": 3, "notes": "", "pk": "1001", "eats_name": "<eats_name/>", "eats_url": "<eats_url/>", "record_title": "<record_title/>", "record_url": "<record_url/>"}, "geometry": {"type": "Point", "coordinates": [-2.7580911438965265, 50.73344638670114]}}</feature>
    <feature xml:id="id-123" type="Point">{"type": "Feature", "properties": {"name": "Winchcombe", "place_type": "settlement", "is_approximate": false, "placeholder_coordinates": null, "container": 42, "patrons_label_flag": 1, "symbol_flag": 1, "notes": "", "pk": "123", "eats_name": "<eats_name/>", "eats_url": "<eats_url/>", "record_title": "<record_title/>", "record_url": "<record_url/>"}, "geometry": {"type": "Point", "coordinates": [-1.957287441285769, 51.95000686089707]}}</feature>
    <feature xml:id="id-1000" type="Point">{"type": "Feature", "properties": {"name": "Town Hall", "place_type": "town hall", "is_approximate": false, "placeholder_coordinates": null, "container": 613, "patrons_label_flag": 3, "symbol_flag": 3, "notes": "", "pk": "1000", "eats_name": "<eats_name/>", "eats_url": "<eats_url/>", "record_title": "<record_title/>", "record_url": "<record_url/>"}, "geometry": {"type": "Point", "coordinates": [-2.9316303782420996, 50.72503934794126]}}</feature>
    <feature xml:id="id-143" type="Point">{"type": "Feature", "properties": {"name": "Wallingford", "place_type": "settlement", "is_approximate": false, "placeholder_coordinates": null, "container": 21, "patrons_label_flag": 1, "symbol_flag": 1, "notes": "", "pk": "143", "eats_name": "<eats_name/>", "eats_url": "<eats_url/>", "record_title": "<record_title/>", "record_url": "<record_url/>"}, "geometry": {"type": "Point", "coordinates": [-1.124747805687652, 51.59979959900096]}}</feature>
    <feature xml:id="id-99" type="Point">{"type": "Feature", "properties": {"name": "Wem", "place_type": "settlement", "is_approximate": false, "placeholder_coordinates": null, "container": 32, "patrons_label_flag": 1, "symbol_flag": 1, "notes": "", "pk": "99", "eats_name": "<eats_name/>", "eats_url": "<eats_url/>", "record_title": "<record_title/>", "record_url": "<record_url/>"}, "geometry": {"type": "Point", "coordinates": [-2.690013669359117, 52.8320450547806]}}</feature>
    <feature xml:id="id-151" type="Point">{"type": "Feature", "properties": {"name": "Liskeard", "place_type": "settlement", "is_approximate": false, "placeholder_coordinates": null, "container": 38, "patrons_label_flag": 1, "symbol_flag": 1, "notes": "", "pk": "151", "eats_name": "<eats_name/>", "eats_url": "<eats_url/>", "record_title": "<record_title/>", "record_url": "<record_url/>"}, "geometry": {"type": "Point", "coordinates": [-4.45662635235464, 50.450445407845145]}}</feature>
    <feature xml:id="id-159" type="Point">{"type": "Feature", "properties": {"name": "Long Sutton", "place_type": "settlement", "is_approximate": false, "placeholder_coordinates": null, "container": 60, "patrons_label_flag": 1, "symbol_flag": 1, "notes": "", "pk": "159", "eats_name": "<eats_name/>", "eats_url": "<eats_url/>", "record_title": "<record_title/>", "record_url": "<record_url/>"}, "geometry": {"type": "Point", "coordinates": [0.12053203582738052, 52.784871300988655]}}</feature>
    <feature xml:id="id-1036" type="Point">{"type": "Feature", "properties": {"name": "Middleton Hall", "place_type": "residence", "is_approximate": false, "placeholder_coordinates": null, "container": 8, "patrons_label_flag": 2, "symbol_flag": 2, "notes": "", "pk": "1036", "eats_name": "<eats_name/>", "eats_url": "<eats_url/>", "record_title": "<record_title/>", "record_url": "<record_url/>"}, "geometry": {"type": "Point", "coordinates": [-1.717139987237079, 52.58051299613792]}}</feature>
    <feature xml:id="id-160" type="Point">{"type": "Feature", "properties": {"name": "Great Yarmouth", "place_type": "settlement", "is_approximate": false, "placeholder_coordinates": null, "container": 37, "patrons_label_flag": 1, "symbol_flag": 1, "notes": "", "pk": "160", "eats_name": "<eats_name/>", "eats_url": "<eats_url/>", "record_title": "<record_title/>", "record_url": "<record_url/>"}, "geometry": {"type": "Point", "coordinates": [1.7287845611569614, 52.604809420107834]}}</feature>
    <feature xml:id="id-207" type="Point">{"type": "Feature", "properties": {"name": "Tiverton Castle", "place_type": "residence", "is_approximate": false, "placeholder_coordinates": null, "container": 1342, "patrons_label_flag": 3, "symbol_flag": 3, "notes": "", "pk": "207", "eats_name": "<eats_name/>", "eats_url": "<eats_url/>", "record_title": "<record_title/>", "record_url": "<record_url/>"}, "geometry": {"type": "Point", "coordinates": [-3.488892461080744, 50.90678784091855]}}</feature>
    <feature xml:id="id-203" type="Point">{"type": "Feature", "properties": {"name": "Bevere Manor", "place_type": "residence", "is_approximate": false, "placeholder_coordinates": null, "container": 7, "patrons_label_flag": 2, "symbol_flag": 2, "notes": "", "pk": "203", "eats_name": "<eats_name/>", "eats_url": "<eats_url/>", "record_title": "<record_title/>", "record_url": "<record_url/>"}, "geometry": {"type": "Point", "coordinates": [-2.23570594265636, 52.233495077327106]}}</feature>
    <feature xml:id="id-1028" type="Point">{"type": "Feature", "properties": {"name": "Council House", "place_type": "other site", "is_approximate": false, "placeholder_coordinates": null, "container": 615, "patrons_label_flag": 3, "symbol_flag": 3, "notes": "", "pk": "1028", "eats_name": "<eats_name/>", "eats_url": "<eats_url/>", "record_title": "<record_title/>", "record_url": "<record_url/>"}, "geometry": {"type": "Point", "coordinates": [-2.750369094560221, 52.709872857184315]}}</feature>
    <feature xml:id="id-208" type="Point">{"type": "Feature", "properties": {"name": "Thornbury Castle", "place_type": "residence", "is_approximate": false, "placeholder_coordinates": null, "container": 1343, "patrons_label_flag": 3, "symbol_flag": 3, "notes": "", "pk": "208", "eats_name": "<eats_name/>", "eats_url": "<eats_url/>", "record_title": "<record_title/>", "record_url": "<record_url/>"}, "geometry": {"type": "Point", "coordinates": [-2.5301081561991663, 51.613949844226326]}}</feature>
    <feature xml:id="id-91" type="Point">{"type": "Feature", "properties": {"name": "Ripon", "place_type": "settlement", "is_approximate": false, "placeholder_coordinates": null, "container": 3, "patrons_label_flag": 1, "symbol_flag": 1, "notes": "", "pk": "91", "eats_name": "<eats_name/>", "eats_url": "<eats_url/>", "record_title": "<record_title/>", "record_url": "<record_url/>"}, "geometry": {"type": "Point", "coordinates": [-1.5174773644419797, 54.13346360609027]}}</feature>
    <feature xml:id="id-89" type="Point">{"type": "Feature", "properties": {"name": "Leeds", "place_type": "settlement", "is_approximate": false, "placeholder_coordinates": null, "container": 3, "patrons_label_flag": 1, "symbol_flag": 1, "notes": "", "pk": "89", "eats_name": "<eats_name/>", "eats_url": "<eats_url/>", "record_title": "<record_title/>", "record_url": "<record_url/>"}, "geometry": {"type": "Point", "coordinates": [-1.5349552156801867, 53.79639120214873]}}</feature>
    <feature xml:id="id-86" type="Point">{"type": "Feature", "properties": {"name": "Pateley Bridge", "place_type": "settlement", "is_approximate": false, "placeholder_coordinates": null, "container": 3, "patrons_label_flag": 2, "symbol_flag": 2, "notes": "", "pk": "86", "eats_name": "<eats_name/>", "eats_url": "<eats_url/>", "record_title": "<record_title/>", "record_url": "<record_url/>"}, "geometry": {"type": "Point", "coordinates": [-1.7523890130099937, 54.083584704294445]}}</feature>
    <feature xml:id="id-205" type="Point">{"type": "Feature", "properties": {"name": "Crowle Manor", "place_type": "residence", "is_approximate": false, "placeholder_coordinates": null, "container": 7, "patrons_label_flag": 2, "symbol_flag": 2, "notes": "", "pk": "205", "eats_name": "<eats_name/>", "eats_url": "<eats_url/>", "record_title": "<record_title/>", "record_url": "<record_url/>"}, "geometry": {"type": "Point", "coordinates": [-2.1170257088010502, 52.20140825864361]}}</feature>
    <feature xml:id="id-214" type="Point">{"type": "Feature", "properties": {"name": "Wingfield Manor", "place_type": "residence", "is_approximate": false, "placeholder_coordinates": null, "container": 5, "patrons_label_flag": 3, "symbol_flag": 3, "notes": "", "pk": "214", "eats_name": "<eats_name/>", "eats_url": "<eats_url/>", "record_title": "<record_title/>", "record_url": "<record_url/>"}, "geometry": {"type": "Point", "coordinates": [-1.4426188967952356, 53.088988019377396]}}</feature>
    <feature xml:id="id-213" type="Point">{"type": "Feature", "properties": {"name": "Darley Abbey", "place_type": "religious house", "is_approximate": false, "placeholder_coordinates": null, "container": 5, "patrons_label_flag": 2, "symbol_flag": 2, "notes": "", "pk": "213", "eats_name": "<eats_name/>", "eats_url": "<eats_url/>", "record_title": "<record_title/>", "record_url": "<record_url/>"}, "geometry": {"type": "Point", "coordinates": [-1.4775671369666252, 52.93841445799523]}}</feature>
    <feature xml:id="id-219" type="Point">{"type": "Feature", "properties": {"name": "DItton Park", "place_type": "residence", "is_approximate": false, "placeholder_coordinates": null, "container": 23, "patrons_label_flag": 2, "symbol_flag": 2, "notes": "", "pk": "219", "eats_name": "<eats_name/>", "eats_url": "<eats_url/>", "record_title": "<record_title/>", "record_url": "<record_url/>"}, "geometry": {"type": "Point", "coordinates": [-0.5606120325855136, 51.49134636661626]}}</feature>
    <feature xml:id="id-164" type="Point">{"type": "Feature", "properties": {"name": "Maldon", "place_type": "settlement", "is_approximate": false, "placeholder_coordinates": null, "container": 48, "patrons_label_flag": 1, "symbol_flag": 1, "notes": "", "pk": "164", "eats_name": "<eats_name/>", "eats_url": "<eats_url/>", "record_title": "<record_title/>", "record_url": "<record_url/>"}, "geometry": {"type": "Point", "coordinates": [0.6743564219082694, 51.7312325919145]}}</feature>
    <feature xml:id="id-132" type="Point">{"type": "Feature", "properties": {"name": "Guildhall 1", "place_type": "guildhall", "is_approximate": false, "placeholder_coordinates": null, "container": 518, "patrons_label_flag": 3, "symbol_flag": 3, "notes": "", "pk": "132", "eats_name": "<eats_name/>", "eats_url": "<eats_url/>", "record_title": "<record_title/>", "record_url": "<record_url/>"}, "geometry": {"type": "Point", "coordinates": [-4.0608100798760915, 51.079263579343625]}}</feature>
    <feature xml:id="id-153" type="Point">{"type": "Feature", "properties": {"name": "St Saviour's Church", "place_type": "church", "is_approximate": false, "placeholder_coordinates": null, "container": 597, "patrons_label_flag": 3, "symbol_flag": 3, "notes": "", "pk": "153", "eats_name": "<eats_name/>", "eats_url": "<eats_url/>", "record_title": "<record_title/>", "record_url": "<record_url/>"}, "geometry": {"type": "Point", "coordinates": [-3.5793327714725294, 50.3520151302683]}}</feature>
    <feature xml:id="id-157" type="Point">{"type": "Feature", "properties": {"name": "Market Deeping", "place_type": "settlement", "is_approximate": false, "placeholder_coordinates": null, "container": 60, "patrons_label_flag": 1, "symbol_flag": 1, "notes": "", "pk": "157", "eats_name": "<eats_name/>", "eats_url": "<eats_url/>", "record_title": "<record_title/>", "record_url": "<record_url/>"}, "geometry": {"type": "Point", "coordinates": [-0.3198673749426795, 52.6786156734031]}}</feature>
    <feature xml:id="id-140" type="Point">{"type": "Feature", "properties": {"name": "Marlborough", "place_type": "settlement", "is_approximate": false, "placeholder_coordinates": null, "container": 20, "patrons_label_flag": 1, "symbol_flag": 1, "notes": "", "pk": "140", "eats_name": "<eats_name/>", "eats_url": "<eats_url/>", "record_title": "<record_title/>", "record_url": "<record_url/>"}, "geometry": {"type": "Point", "coordinates": [-1.7307667410893366, 51.42060704138194]}}</feature>
    <feature xml:id="id-217" type="Point">{"type": "Feature", "properties": {"name": "Maxstoke Priory", "place_type": "religious house", "is_approximate": false, "placeholder_coordinates": null, "container": 8, "patrons_label_flag": 3, "symbol_flag": 3, "notes": "", "pk": "217", "eats_name": "<eats_name/>", "eats_url": "<eats_url/>", "record_title": "<record_title/>", "record_url": "<record_url/>"}, "geometry": {"type": "Point", "coordinates": [-1.6561643849267274, 52.47804795354687]}}</feature>
    <feature xml:id="id-154" type="Point">{"type": "Feature", "properties": {"name": "Shire Hall", "place_type": "residence", "is_approximate": false, "placeholder_coordinates": null, "container": 1250, "patrons_label_flag": 3, "symbol_flag": 3, "notes": "", "pk": "154", "eats_name": "<eats_name/>", "eats_url": "<eats_url/>", "record_title": "<record_title/>", "record_url": "<record_url/>"}, "geometry": {"type": "Point", "coordinates": [-2.436326350105691, 50.71571025925156]}}</feature>
    <feature xml:id="id-161" type="Point">{"type": "Feature", "properties": {"name": "Christ's College", "place_type": "college", "is_approximate": false, "placeholder_coordinates": null, "container": 68, "patrons_label_flag": 3, "symbol_flag": 3, "notes": "", "pk": "161", "eats_name": "<eats_name/>", "eats_url": "<eats_url/>", "record_title": "<record_title/>", "record_url": "<record_url/>"}, "geometry": {"type": "Point", "coordinates": [0.12221628308799366, 52.20538910762924]}}</feature>
    <feature xml:id="id-216" type="Point">{"type": "Feature", "properties": {"name": "Pershore Abbey", "place_type": "religious house", "is_approximate": false, "placeholder_coordinates": null, "container": 1344, "patrons_label_flag": 3, "symbol_flag": 3, "notes": "", "pk": "216", "eats_name": "<eats_name/>", "eats_url": "<eats_url/>", "record_title": "<record_title/>", "record_url": "<record_url/>"}, "geometry": {"type": "Point", "coordinates": [-2.0775864967752318, 52.11044868889269]}}</feature>
    <feature xml:id="id-209" type="Point">{"type": "Feature", "properties": {"name": "Dore Abbey", "place_type": "religious house", "is_approximate": false, "placeholder_coordinates": null, "container": 30, "patrons_label_flag": 3, "symbol_flag": 3, "notes": "", "pk": "209", "eats_name": "<eats_name/>", "eats_url": "<eats_url/>", "record_title": "<record_title/>", "record_url": "<record_url/>"}, "geometry": {"type": "Point", "coordinates": [-2.8934505099214887, 51.96866951431575]}}</feature>
    <feature xml:id="id-131" type="Point">{"type": "Feature", "properties": {"name": "Poughill", "place_type": "settlement", "is_approximate": false, "placeholder_coordinates": null, "container": 38, "patrons_label_flag": 1, "symbol_flag": 1, "notes": "", "pk": "131", "eats_name": "<eats_name/>", "eats_url": "<eats_url/>", "record_title": "<record_title/>", "record_url": "<record_url/>"}, "geometry": {"type": "Point", "coordinates": [-4.526099034495805, 50.841899751672855]}}</feature>
    <feature xml:id="id-144" type="Point">{"type": "Feature", "properties": {"name": "Reading", "place_type": "settlement", "is_approximate": false, "placeholder_coordinates": null, "container": 21, "patrons_label_flag": 1, "symbol_flag": 1, "notes": "", "pk": "144", "eats_name": "<eats_name/>", "eats_url": "<eats_url/>", "record_title": "<record_title/>", "record_url": "<record_url/>"}, "geometry": {"type": "Point", "coordinates": [-0.9694475875784627, 51.45390411923589]}}</feature>
    <feature xml:id="id-163" type="Point">{"type": "Feature", "properties": {"name": "Saffron Walden", "place_type": "settlement", "is_approximate": false, "placeholder_coordinates": null, "container": 48, "patrons_label_flag": 1, "symbol_flag": 1, "notes": "", "pk": "163", "eats_name": "<eats_name/>", "eats_url": "<eats_url/>", "record_title": "<record_title/>", "record_url": "<record_url/>"}, "geometry": {"type": "Point", "coordinates": [0.24134584975681989, 52.02352158209368]}}</feature>
    <feature xml:id="id-223" type="Point">{"type": "Feature", "properties": {"name": "Peterborough Abbey", "place_type": "religious house", "is_approximate": false, "placeholder_coordinates": null, "container": 1346, "patrons_label_flag": 3, "symbol_flag": 3, "notes": "", "pk": "223", "eats_name": "<eats_name/>", "eats_url": "<eats_url/>", "record_title": "<record_title/>", "record_url": "<record_url/>"}, "geometry": {"type": "Point", "coordinates": [-0.23934169578155176, 52.572452768060586]}}</feature>
    <feature xml:id="id-142" type="Point">{"type": "Feature", "properties": {"name": "Abingdon", "place_type": "settlement", "is_approximate": false, "placeholder_coordinates": null, "container": 21, "patrons_label_flag": 1, "symbol_flag": 1, "notes": "", "pk": "142", "eats_name": "<eats_name/>", "eats_url": "<eats_url/>", "record_title": "<record_title/>", "record_url": "<record_url/>"}, "geometry": {"type": "Point", "coordinates": [-1.278876090660342, 51.67004724506321]}}</feature>
    <feature xml:id="id-212" type="Point">{"type": "Feature", "properties": {"name": "Selby Abbey", "place_type": "religious house", "is_approximate": false, "placeholder_coordinates": null, "container": 3, "patrons_label_flag": 3, "symbol_flag": 3, "notes": "", "pk": "212", "eats_name": "<eats_name/>", "eats_url": "<eats_url/>", "record_title": "<record_title/>", "record_url": "<record_url/>"}, "geometry": {"type": "Point", "coordinates": [-1.067099608105429, 53.78404257264032]}}</feature>
    <feature xml:id="id-170" type="Point">{"type": "Feature", "properties": {"name": "Dunwich", "place_type": "settlement", "is_approximate": false, "placeholder_coordinates": null, "container": 11, "patrons_label_flag": 2, "symbol_flag": 2, "notes": "", "pk": "170", "eats_name": "<eats_name/>", "eats_url": "<eats_url/>", "record_title": "<record_title/>", "record_url": "<record_url/>"}, "geometry": {"type": "Point", "coordinates": [1.6264954682216508, 52.27779940628913]}}</feature>
    <feature xml:id="id-148" type="Point">{"type": "Feature", "properties": {"name": "Falmouth", "place_type": "settlement", "is_approximate": false, "placeholder_coordinates": null, "container": 38, "patrons_label_flag": 1, "symbol_flag": 1, "notes": "", "pk": "148", "eats_name": "<eats_name/>", "eats_url": "<eats_url/>", "record_title": "<record_title/>", "record_url": "<record_url/>"}, "geometry": {"type": "Point", "coordinates": [-5.06643655644605, 50.15198588619007]}}</feature>
    <feature xml:id="id-386" type="Point">{"type": "Feature", "properties": {"name": "Coity Castle", "place_type": "residence", "is_approximate": false, "placeholder_coordinates": null, "container": 1372, "patrons_label_flag": 3, "symbol_flag": 3, "notes": "", "pk": "386", "eats_name": "<eats_name/>", "eats_url": "<eats_url/>", "record_title": "<record_title/>", "record_url": "<record_url/>"}, "geometry": {"type": "Point", "coordinates": [-3.5749683380132007, 51.50578286122316]}}</feature>
    <feature xml:id="id-137" type="Point">{"type": "Feature", "properties": {"name": "Somerton", "place_type": "settlement", "is_approximate": false, "placeholder_coordinates": null, "container": 39, "patrons_label_flag": 1, "symbol_flag": 1, "notes": "", "pk": "137", "eats_name": "<eats_name/>", "eats_url": "<eats_url/>", "record_title": "<record_title/>", "record_url": "<record_url/>"}, "geometry": {"type": "Point", "coordinates": [-2.7283457688826602, 51.05439440135217]}}</feature>
    <feature xml:id="id-221" type="Point">{"type": "Feature", "properties": {"name": "Wymondham  Abbey", "place_type": "religious house", "is_approximate": false, "placeholder_coordinates": null, "container": 37, "patrons_label_flag": 3, "symbol_flag": 3, "notes": "", "pk": "221", "eats_name": "<eats_name/>", "eats_url": "<eats_url/>", "record_title": "<record_title/>", "record_url": "<record_url/>"}, "geometry": {"type": "Point", "coordinates": [1.10736790045979, 52.57047526233987]}}</feature>
    <feature xml:id="id-215" type="Point">{"type": "Feature", "properties": {"name": "Somerton Castle", "place_type": "residence", "is_approximate": false, "placeholder_coordinates": null, "container": 60, "patrons_label_flag": 2, "symbol_flag": 2, "notes": "", "pk": "215", "eats_name": "<eats_name/>", "eats_url": "<eats_url/>", "record_title": "<record_title/>", "record_url": "<record_url/>"}, "geometry": {"type": "Point", "coordinates": [-0.5758015567914408, 53.11774679933698]}}</feature>
    <feature xml:id="id-165" type="Point">{"type": "Feature", "properties": {"name": "Sudbury", "place_type": "settlement", "is_approximate": false, "placeholder_coordinates": null, "container": 11, "patrons_label_flag": 1, "symbol_flag": 1, "notes": "", "pk": "165", "eats_name": "<eats_name/>", "eats_url": "<eats_url/>", "record_title": "<record_title/>", "record_url": "<record_url/>"}, "geometry": {"type": "Point", "coordinates": [0.7296454144839586, 52.038496780236215]}}</feature>
    <feature xml:id="id-134" type="Point">{"type": "Feature", "properties": {"name": "Taunton", "place_type": "settlement", "is_approximate": false, "placeholder_coordinates": null, "container": 39, "patrons_label_flag": 1, "symbol_flag": 1, "notes": "", "pk": "134", "eats_name": "<eats_name/>", "eats_url": "<eats_url/>", "record_title": "<record_title/>", "record_url": "<record_url/>"},