<geodata>
  <features>
    <feature xml:id="id-1590" type="Point">{"type": "Feature", "properties": {"name": "Unicorn Inn", "place_type": "victualling-house", "is_approximate": false, "placeholder_coordinates": null, "container": 643, "patrons_label_flag": 2, "symbol_flag": 2, "notes": "", "pk": "1590", "eats_name": "<eats_name/>", "eats_url": "<eats_url/>", "record_title": "<record_title/>", "record_url": "<record_url/>"}, "geometry": {"type": "Point", "coordinates": [-0.09608543233336715, 51.508231858257766]}}</feature>
    <feature xml:id="id-1588" type="Point">{"type": "Feature", "properties": {"name": "Hartshorn Inn", "place_type": "victualling-house", "is_approximate": false, "placeholder_coordinates": null, "container": 643, "patrons_label_flag": 2, "symbol_flag": 2, "notes": "", "pk": "1588", "eats_name": "<eats_name/>", "eats_url": "<eats_url/>", "record_title": "<record_title/>", "record_url": "<record_url/>"}, "geometry": {"type": "Point", "coordinates": [-0.09504773085648152, 51.508053094256844]}}</feature>
    <feature xml:id="id-1332" type="Point">{"type": "Feature", "properties": {"name": "Town Hall", "place_type": "town hall", "is_approximate": true, "placeholder_coordinates": null, "container": 146, "patrons_label_flag": 3, "symbol_flag": 3, "notes": "", "pk": "1332", "eats_name": "<eats_name/>", "eats_url": "<eats_url/>", "record_title": "<record_title/>", "record_url": "<record_url/>"}, "geometry": {"type": "Point", "coordinates": [-0.7972984313967518, 51.214024002041455]}}</feature>
    <feature xml:id="id-1354" type="Point">{"type": "Feature", "properties": {"name": "Melbourne", "place_type": "settlement", "is_approximate": false, "placeholder_coordinates": null, "container": 5, "patrons_label_flag": 2, "symbol_flag": 2, "notes": "", "pk": "1354", "eats_name": "<eats_name/>", "eats_url": "<eats_url/>", "record_title": "<record_title/>", "record_url": "<record_url/>"}, "geometry": {"type": "Point", "coordinates": [-1.4272227287293706, 52.822179454253494]}}</feature>
    <feature xml:id="id-79" type="Point">{"type": "Feature", "properties": {"name": "Clitheroe", "place_type": "settlement", "is_approximate": false, "placeholder_coordinates": null, "container": 18, "patrons_label_flag": 1, "symbol_flag": 1, "notes": "", "pk": "79", "eats_name": "<eats_name/>", "eats_url": "<eats_url/>", "record_title": "<record_title/>", "record_url": "<record_url/>"}, "geometry": {"type": "Point", "coordinates": [-2.379210698078431, 53.87329584309791]}}</feature>
    <feature xml:id="id-126" type="Point">{"type": "Feature", "properties": {"name": "Guildhall", "place_type": "guildhall", "is_approximate": false, "placeholder_coordinates": null, "container": 1034, "patrons_label_flag": 1, "symbol_flag": 1, "notes": "", "pk": "126", "eats_name": "<eats_name/>", "eats_url": "<eats_url/>", "record_title": "<record_title/>", "record_url": "<record_url/>"}, "geometry": {"type": "Point", "coordinates": [-1.9870420815234806, 52.58597294855375]}}</feature>
    <feature xml:id="id-1249" type="Point">{"type": "Feature", "properties": {"name": "Isle of Wight", "place_type": "settlement", "is_approximate": false, "placeholder_coordinates": null, "container": 19, "patrons_label_flag": 1, "symbol_flag": 1, "notes": "", "pk": "1249", "eats_name": "<eats_name/>", "eats_url": "<eats_url/>", "record_title": "<record_title/>", "record_url": "<record_url/>"}, "geometry": {"type": "Point", "coordinates": [-1.3038025578134822, 50.677490357834884]}}</feature>
    <feature xml:id="id-73" type="Point">{"type": "Feature", "properties": {"name": "Wigan", "place_type": "settlement", "is_approximate": false, "placeholder_coordinates": null, "container": 18, "patrons_label_flag": 1, "symbol_flag": 1, "notes": "", "pk": "73", "eats_name": "<eats_name/>", "eats_url": "<eats_url/>", "record_title": "<record_title/>", "record_url": "<record_url/>"}, "geometry": {"type": "Point", "coordinates": [-2.6578939428447255, 53.55130918852573]}}</feature>
    <feature xml:id="id-343" type="Point">{"type": "Feature", "properties": {"name": "Trerice House", "place_type": "residence", "is_approximate": false, "placeholder_coordinates": null, "container": 38, "patrons_label_flag": 3, "symbol_flag": 3, "notes": "", "pk": "343", "eats_name": "<eats_name/>", "eats_url": "<eats_url/>", "record_title": "<record_title/>", "record_url": "<record_url/>"}, "geometry": {"type": "Point", "coordinates": [-5.038493567506435, 50.38661686202949]}}</feature>
    <feature xml:id="id-106" type="Point">{"type": "Feature", "properties": {"name": "Handsacre", "place_type": "settlement", "is_approximate": false, "placeholder_coordinates": null, "container": 4, "patrons_label_flag": 1, "symbol_flag": 1, "notes": "", "pk": "106", "eats_name": "<eats_name/>", "eats_url": "<eats_url/>", "record_title": "<record_title/>", "record_url": "<record_url/>"}, "geometry": {"type": "Point", "coordinates": [-1.866848119040773, 52.74364391439877]}}</feature>
    <feature xml:id="id-101" type="Point">{"type": "Feature", "properties": {"name": "Warrington", "place_type": "settlement", "is_approximate": false, "placeholder_coordinates": null, "container": 18, "patrons_label_flag": 1, "symbol_flag": 1, "notes": "", "pk": "101", "eats_name": "<eats_name/>", "eats_url": "<eats_url/>", "record_title": "<record_title/>", "record_url": "<record_url/>"}, "geometry": {"type": "Point", "coordinates": [-2.5848545250207513, 53.39128750949986]}}</feature>
    <feature xml:id="id-105" type="Point">{"type": "Feature", "properties": {"name": "Manchester", "place_type": "settlement", "is_approximate": false, "placeholder_coordinates": null, "container": 18, "patrons_label_flag": 1, "symbol_flag": 1, "notes": "", "pk": "105", "eats_name": "<eats_name/>", "eats_url": "<eats_url/>", "record_title": "<record_title/>", "record_url": "<record_url/>"}, "geometry": {"type": "Point", "coordinates": [-2.2434903323784434, 53.48007327969797]}}</feature>
    <feature xml:id="id-100" type="Point">{"type": "Feature", "properties": {"name": "Nantwich", "place_type": "settlement", "is_approximate": false, "placeholder_coordinates": null, "container": 17, "patrons_label_flag": 1, "symbol_flag": 1, "notes": "", "pk": "100", "eats_name": "<eats_name/>", "eats_url": "<eats_url/>", "record_title": "<record_title/>", "record_url": "<record_url/>"}, "geometry": {"type": "Point", "coordinates": [-2.5074721031410627, 53.06308768343247]}}</feature>
    <feature xml:id="id-103" type="Point">{"type": "Feature", "properties": {"name": "Church Eaton", "place_type": "settlement", "is_approximate": false, "placeholder_coordinates": null, "container": 4, "patrons_label_flag": 1, "symbol_flag": 1, "notes": "", "pk": "103", "eats_name": "<eats_name/>", "eats_url": "<eats_url/>", "record_title": "<record_title/>", "record_url": "<record_url/>"}, "geometry": {"type": "Point", "coordinates": [-2.2336888807887596, 52.75500326893298]}}</feature>
    <feature xml:id="id-1586" type="Point">{"type": "Feature", "properties": {"name": "Lion Inn", "place_type": "victualling-house", "is_approximate": false, "placeholder_coordinates": null, "container": 643, "patrons_label_flag": 3, "symbol_flag": 3, "notes": "", "pk": "1586", "eats_name": "<eats_name/>", "eats_url": "<eats_url/>", "record_title": "<record_title/>", "record_url": "<record_url/>"}, "geometry": {"type": "Point", "coordinates": [-0.09452369863547758, 51.50791774111623]}}</feature>
    <feature xml:id="id-1587" type="Point">{"type": "Feature", "properties": {"name": "Ram Inn", "place_type": "victualling-house", "is_approximate": false, "placeholder_coordinates": null, "container": 643, "patrons_label_flag": 3, "symbol_flag": 3, "notes": "", "pk": "1587", "eats_name": "<eats_name/>", "eats_url": "<eats_url/>", "record_title": "<record_title/>", "record_url": "<record_url/>"}, "geometry": {"type": "Point", "coordinates": [-0.09473795491559402, 51.507969796021186]}}</feature>
    <feature xml:id="id-1589" type="Point">{"type": "Feature", "properties": {"name": "Rose Inn", "place_type": "victualling-house", "is_approximate": false, "placeholder_coordinates": null, "container": 643, "patrons_label_flag": 3, "symbol_flag": 3, "notes": "", "pk": "1589", "eats_name": "<eats_name/>", "eats_url": "<eats_url/>", "record_title": "<record_title/>", "record_url": "<record_url/>"}, "geometry": {"type": "Point", "coordinates": [-0.09518800548303527, 51.50808701690553]}}</feature>
    <feature xml:id="id-521" type="Point">{"type": "Feature", "properties": {"name": "Red Lion Inn", "place_type": "victualling-house", "is_approximate": false, "placeholder_coordinates": null, "container": 55, "patrons_label_flag": 3, "symbol_flag": 3, "notes": "", "pk": "521", "eats_name": "<eats_name/>", "eats_url": "<eats_url/>", "record_title": "<record_title/>", "record_url": "<record_url/>"}, "geometry": {"type": "Point", "coordinates": [1.2945930238544294, 52.62655507172196]}}</feature>
    <feature xml:id="id-104" type="Point">{"type": "Feature", "properties": {"name": "The Swan", "place_type": "victualling-house", "is_approximate": false, "placeholder_coordinates": null, "container": 596, "patrons_label_flag": 3, "symbol_flag": 3, "notes": "", "pk": "104", "eats_name": "<eats_name/>", "eats_url": "<eats_url/>", "record_title": "<record_title/>", "record_url": "<record_url/>"}, "geometry": {"type": "Point", "coordinates": [-2.214325047154209, 53.16314236572471]}}</feature>
    <feature xml:id="id-172" type="Point">{"type": "Feature", "properties": {"name": "Court Hall", "place_type": "town hall", "is_approximate": false, "placeholder_coordinates": null, "container": 603, "patrons_label_flag": 3, "symbol_flag": 3, "notes": "", "pk": "172", "eats_name": "<eats_name/>", "eats_url": "<eats_url/>", "record_title": "<record_title/>", "record_url": "<record_url/>"}, "geometry": {"type": "Point", "coordinates": [0.7342663923228993, 50.950270329801036]}}</feature>
    <feature xml:id="id-795" type="Point">{"type": "Feature", "properties": {"name": "Childrey", "place_type": "settlement", "is_approximate": false, "placeholder_coordinates": null, "container": 21, "patrons_label_flag": 2, "symbol_flag": 2, "notes": "", "pk": "795", "eats_name": "<eats_name/>", "eats_url": "<eats_url/>", "record_title": "<record_title/>", "record_url": "<record_url/>"}, "geometry": {"type": "Point", "coordinates": [-1.480204000000002, 51.58628300000001]}}</feature>
    <feature xml:id="id-319" type="Point">{"type": "Feature", "properties": {"name": "Middleton Hall", "place_type": "residence", "is_approximate": false, "placeholder_coordinates": null, "container": 2, "patrons_label_flag": 3, "symbol_flag": 3, "notes": "", "pk": "319", "eats_name": "<eats_name/>", "eats_url": "<eats_url/>", "record_title": "<record_title/>", "record_url": "<record_url/>"}, "geometry": {"type": "Point", "coordinates": [-2.5745094489537252, 54.28134211821113]}}</feature>
    <feature xml:id="id-751" type="Point">{"type": "Feature", "properties": {"name": "Longcot", "place_type": "settlement", "is_approximate": false, "placeholder_coordinates": null, "container": 21, "patrons_label_flag": 2, "symbol_flag": 2, "notes": "", "pk": "751", "eats_name": "<eats_name/>", "eats_url": "<eats_url/>", "record_title": "<record_title/>", "record_url": "<record_url/>"}, "geometry": {"type": "Point", "coordinates": [-1.60360699999999, 51.615576000000004]}}</feature>
    <feature xml:id="id-80" type="Point">{"type": "Feature", "properties": {"name": "Wigglesworth", "place_type": "settlement", "is_approximate": false, "placeholder_coordinates": null, "container": 3, "patrons_label_flag": 1, "symbol_flag": 1, "notes": "", "pk": "80", "eats_name": "<eats_name/>", "eats_url": "<eats_url/>", "record_title": "<record_title/>", "record_url": "<record_url/>"}, "geometry": {"type": "Point", "coordinates": [-2.280562928296657, 54.00464488341125]}}</feature>
    <feature xml:id="id-765" type="Point">{"type": "Feature", "properties": {"name": "Maidenhead", "place_type": "settlement", "is_approximate": false, "placeholder_coordinates": null, "container": 21, "patrons_label_flag": 2, "symbol_flag": 2, "notes": "", "pk": "765", "eats_name": "<eats_name/>", "eats_url": "<eats_url/>", "record_title": "<record_title/>", "record_url": "<record_url/>"}, "geometry": {"type": "Point", "coordinates": [-0.720614999999995, 51.52427999999999]}}</feature>
    <feature xml:id="id-746" type="Point">{"type": "Feature", "properties": {"name": "Coleshill", "place_type": "settlement", "is_approximate": false, "placeholder_coordinates": null, "container": 21, "patrons_label_flag": 2, "symbol_flag": 2, "notes": "", "pk": "746", "eats_name": "<eats_name/>", "eats_url": "<eats_url/>", "record_title": "<record_title/>", "record_url": "<record_url/>"}, "geometry": {"type": "Point", "coordinates": [-1.658131999999991, 51.642570000000006]}}</feature>
    <feature xml:id="id-784" type="Point">{"type": "Feature", "properties": {"name": "Datchet", "place_type": "settlement", "is_approximate": false, "placeholder_coordinates": null, "container": 21, "patrons_label_flag": 2, "symbol_flag": 2, "notes": "", "pk": "784", "eats_name": "<eats_name/>", "eats_url": "<eats_url/>", "record_title": "<record_title/>", "record_url": "<record_url/>"}, "geometry": {"type": "Point", "coordinates": [-0.5798310000000081, 51.48382000000002]}}</feature>
    <feature xml:id="id-663" type="Point">{"type": "Feature", "properties": {"name": "Fulham", "place_type": "settlement", "is_approximate": false, "placeholder_coordinates": null, "container": 58, "patrons_label_flag": 2, "symbol_flag": 2, "notes": "", "pk": "663", "eats_name": "<eats_name/>", "eats_url": "<eats_url/>", "record_title": "<record_title/>", "record_url": "<record_url/>"}, "geometry": {"type": "Point", "coordinates": [-0.21183298748455115, 51.46853199601616]}}</feature>
    <feature xml:id="id-766" type="Point">{"type": "Feature", "properties": {"name": "Denchworth", "place_type": "settlement", "is_approximate": false, "placeholder_coordinates": null, "container": 21, "patrons_label_flag": 2, "symbol_flag": 2, "notes": "", "pk": "766", "eats_name": "<eats_name/>", "eats_url": "<eats_url/>", "record_title": "<record_title/>", "record_url": "<record_url/>"}, "geometry": {"type": "Point", "coordinates": [-1.450474000000003, 51.624510000000015]}}</feature>
    <feature xml:id="id-756" type="Point">{"type": "Feature", "properties": {"name": "Newbury", "place_type": "settlement", "is_approximate": false, "placeholder_coordinates": null, "container": 21, "patrons_label_flag": 1, "symbol_flag": 1, "notes": "", "pk": "756", "eats_name": "<eats_name/>", "eats_url": "<eats_url/>", "record_title": "<record_title/>", "record_url": "<record_url/>"}, "geometry": {"type": "Point", "coordinates": [-1.3216570000000067, 51.40049000000001]}}</feature>
    <feature xml:id="id-787" type="Point">{"type": "Feature", "properties": {"name": "Didcot", "place_type": "settlement", "is_approximate": false, "placeholder_coordinates": null, "container": 21, "patrons_label_flag": 2, "symbol_flag": 2, "notes": "", "pk": "787", "eats_name": "<eats_name/>", "eats_url": "<eats_url/>", "record_title": "<record_title/>", "record_url": "<record_url/>"}, "geometry": {"type": "Point", "coordinates": [-1.25097599999999, 51.612670000000016]}}</feature>
    <feature xml:id="id-789" type="Point">{"type": "Feature", "properties": {"name": "Warfield", "place_type": "settlement", "is_approximate": false, "placeholder_coordinates": null, "container": 21, "patrons_label_flag": 2, "symbol_flag": 2, "notes": "", "pk": "789", "eats_name": "<eats_name/>", "eats_url": "<eats_url/>", "record_title": "<record_title/>", "record_url": "<record_url/>"}, "geometry": {"type": "Point", "coordinates": [-0.7321799999999995, 51.442069999999994]}}</feature>
    <feature xml:id="id-74" type="Point">{"type": "Feature", "properties": {"name": "Preston", "place_type": "settlement", "is_approximate": false, "placeholder_coordinates": null, "container": 18, "patrons_label_flag": 1, "symbol_flag": 1, "notes": "", "pk": "74", "eats_name": "<eats_name/>", "eats_url": "<eats_url/>", "record_title": "<record_title/>", "record_url": "<record_url/>"}, "geometry": {"type": "Point", "coordinates": [-2.674929538197215, 53.753264869371435]}}</feature>
    <feature xml:id="id-506" type="Point">{"type": "Feature", "properties": {"name": "Trinity College", "place_type": "college", "is_approximate": false, "placeholder_coordinates": null, "container": 68, "patrons_label_flag": 3, "symbol_flag": 3, "notes": "", "pk": "506", "eats_name": "<eats_name/>", "eats_url": "<eats_url/>", "record_title": "<record_title/>", "record_url": "<record_url/>"}, "geometry": {"type": "Point", "coordinates": [0.11750494371458865, 52.20687344514998]}}</feature>
    <feature xml:id="id-77" type="Point">{"type": "Feature", "properties": {"name": "Ribchester", "place_type": "settlement", "is_approximate": false, "placeholder_coordinates": null, "container": 18, "patrons_label_flag": 1, "symbol_flag": 1, "notes": "", "pk": "77", "eats_name": "<eats_name/>", "eats_url": "<eats_url/>", "record_title": "<record_title/>", "record_url": "<record_url/>"}, "geometry": {"type": "Point", "coordinates": [-2.5245331908846596, 53.812429969039265]}}</feature>
    <feature xml:id="id-786" type="Point">{"type": "Feature", "properties": {"name": "Shrivenham", "place_type": "settlement", "is_approximate": false, "placeholder_coordinates": null, "container": 21, "patrons_label_flag": 2, "symbol_flag": 2, "notes": "", "pk": "786", "eats_name": "<eats_name/>", "eats_url": "<eats_url/>", "record_title": "<record_title/>", "record_url": "<record_url/>"}, "geometry": {"type": "Point", "coordinates": [-1.6541410000000119, 51.598943000000006]}}</feature>
    <feature xml:id="id-772" type="Point">{"type": "Feature", "properties": {"name": "Sindlesham", "place_type": "settlement", "is_approximate": false, "placeholder_coordinates": null, "container": 21, "patrons_label_flag": 2, "symbol_flag": 2, "notes": "", "pk": "772", "eats_name": "<eats_name/>", "eats_url": "<eats_url/>", "record_title": "<record_title/>", "record_url": "<record_url/>"}, "geometry": {"type": "Point", "coordinates": [-0.8881539999999989, 51.421550999999994]}}</feature>
    <feature xml:id="id-1355" type="Point">{"type": "Feature", "properties": {"name": "Bolsover", "place_type": "settlement", "is_approximate": false, "placeholder_coordinates": null, "container": 5, "patrons_label_flag": 2, "symbol_flag": 2, "notes": "", "pk": "1355", "eats_name": "<eats_name/>", "eats_url": "<eats_url/>", "record_title": "<record_title/>", "record_url": "<record_url/>"}, "geometry": {"type": "Point", "coordinates": [-1.2920265197756524, 53.22979159010488]}}</feature>
    <feature xml:id="id-776" type="Point">{"type": "Feature", "properties": {"name": "St Clement's Church", "place_type": "church", "is_approximate": false, "placeholder_coordinates": null, "container": 775, "patrons_label_flag": 3, "symbol_flag": 3, "notes": "", "pk": "776", "eats_name": "<eats_name/>", "eats_url": "<eats_url/>", "record_title": "<record_title/>", "record_url": "<record_url/>"}, "geometry": {"type": "Point", "coordinates": [-1.188633999999995, 51.48742]}}</feature>
    <feature xml:id="id-777" type="Point">{"type": "Feature", "properties": {"name": "Sonning", "place_type": "settlement", "is_approximate": false, "placeholder_coordinates": null, "container": 21, "patrons_label_flag": 2, "symbol_flag": 2, "notes": "", "pk": "777", "eats_name": "<eats_name/>", "eats_url": "<eats_url/>", "record_title": "<record_title/>", "record_url": "<record_url/>"}, "geometry": {"type": "Point", "coordinates": [-0.9127560000000013, 51.47270000000001]}}</feature>
    <feature xml:id="id-979" type="Point">{"type": "Feature", "properties": {"name": "Durham", "place_type": "settlement", "is_approximate": false, "placeholder_coordinates": null, "container": 49, "patrons_label_flag": 1, "symbol_flag": 1, "notes": "", "pk": "979", "eats_name": "<eats_name/>", "eats_url": "<eats_url/>", "record_title": "<record_title/>", "record_url": "<record_url/>"}, "geometry": {"type": "Point", "coordinates": [-1.5753461765798644, 54.777416542310476]}}</feature>
    <feature xml:id="id-792" type="Point">{"type": "Feature", "properties": {"name": "Stanford in the Vale", "place_type": "settlement", "is_approximate": false, "placeholder_coordinates": null, "container": 21, "patrons_label_flag": 2, "symbol_flag": 2, "notes": "", "pk": "792", "eats_name": "<eats_name/>", "eats_url": "<eats_url/>", "record_title": "<record_title/>", "record_url": "<record_url/>"}, "geometry": {"type": "Point", "coordinates": [-1.5107419999999903, 51.63985000000001]}}</feature>
    <feature xml:id="id-748" type="Point">{"type": "Feature", "properties": {"name": "Steventon", "place_type": "settlement", "is_approximate": false, "placeholder_coordinates": null, "container": 21, "patrons_label_flag": 2, "symbol_flag": 2, "notes": "", "pk": "748", "eats_name": "<eats_name/>", "eats_url": "<eats_url/>", "record_title": "<record_title/>", "record_url": "<record_url/>"}, "geometry": {"type": "Point", "coordinates": [-1.329303000000011, 51.620720000000006]}}</feature>
    <feature xml:id="id-764" type="Point">{"type": "Feature", "properties": {"name": "St Giles' Church", "place_type": "church", "is_approximate": false, "placeholder_coordinates": null, "container": 144, "patrons_label_flag": 3, "symbol_flag": 3, "notes": "", "pk": "764", "eats_name": "<eats_name/>", "eats_url": "<eats_url/>", "record_title": "<record_title/>", "record_url": "<record_url/>"}, "geometry": {"type": "Point", "coordinates": [-0.9703799999999918, 51.45100000000001]}}</feature>
    <feature xml:id="id-83" type="Point">{"type": "Feature", "properties": {"name": "Elland", "place_type": "settlement", "is_approximate": false, "placeholder_coordinates": null, "container": 3, "patrons_label_flag": 3, "symbol_flag": 3, "notes": "", "pk": "83", "eats_name": "<eats_name/>", "eats_url": "<eats_url/>", "record_title": "<record_title/>", "record_url": "<record_url/>"}, "geometry": {"type": "Point", "coordinates": [-1.8267261002624764, 53.68148175062992]}}</feature>
    <feature xml:id="id-158" type="Point">{"type": "Feature", "properties": {"name": "St James' Church", "place_type": "church", "is_approximate": false, "placeholder_coordinates": null, "container": 60, "patrons_label_flag": 3, "symbol_flag": 3, "notes": "", "pk": "158", "eats_name": "<eats_name/>", "eats_url": "<eats_url/>", "record_title": "<record_title/>", "record_url": "<record_url/>"}, "geometry": {"type": "Point", "coordinates": [-0.007981200719366636, 53.36666504557247]}}</feature>
    <feature xml:id="id-780" type="Point">{"type": "Feature", "properties": {"name": "Ewelme", "place_type": "settlement", "is_approximate": false, "placeholder_coordinates": null, "container": 22, "patrons_label_flag": 2, "symbol_flag": 2, "notes": "", "pk": "780", "eats_name": "<eats_name/>", "eats_url": "<eats_url/>", "record_title": "<record_title/>", "record_url": "<record_url/>"}, "geometry": {"type": "Point", "coordinates": [-1.0660790000000018, 51.61677000000002]}}</feature>
    <feature xml:id="id-783" type="Point">{"type": "Feature", "properties": {"name": "Faringdon", "place_type": "settlement", "is_approximate": false, "placeholder_coordinates": null, "container": 21, "patrons_label_flag": 2, "symbol_flag": 2, "notes": "", "pk": "783", "eats_name": "<eats_name/>", "eats_url": "<eats_url/>", "record_title": "<record_title/>", "record_url": "<record_url/>"}, "geometry": {"type": "Point", "coordinates": [-1.5837070000000049, 51.658436000000016]}}</feature>
    <feature xml:id="id-759" type="Point">{"type": "Feature", "properties": {"name": "Finchampstead", "place_type": "settlement", "is_approximate": false, "placeholder_coordinates": null, "container": 21, "patrons_label_flag": 2, "symbol_flag": 2, "notes": "", "pk": "759", "eats_name": "<eats_name/>", "eats_url": "<eats_url/>", "record_title": "<record_title/>", "record_url": "<record_url/>"}, "geometry": {"type": "Point", "coordinates": [-0.8595130000000055, 51.36144]}}</feature>
    <feature xml:id="id-753" type="Point">{"type": "Feature", "properties": {"name": "Streatley", "place_type": "settlement", "is_approximate": false, "placeholder_coordinates": null, "container": 21, "patrons_label_flag": 2, "symbol_flag": 2, "notes": "", "pk": "753", "eats_name": "<eats_name/>", "eats_url": "<eats_url/>", "record_title": "<record_title/>", "record_url": "<record_url/>"}, "geometry": {"type": "Point", "coordinates": [-1.1460550000000036, 51.52287]}}</feature>
    <feature xml:id="id-794" type="Point">{"type": "Feature", "properties": {"name": "Great Coxwell", "place_type": "settlement", "is_approximate": false, "placeholder_coordinates": null, "container": 21, "patrons_label_flag": 2, "symbol_flag": 2, "notes": "", "pk": "794", "eats_name": "<eats_name/>", "eats_url": "<eats_url/>", "record_title": "<record_title/>", "record_url": "<record_url/>"}, "geometry": {"type": "Point", "coordinates": [-1.6129230000000072, 51.63932]}}</feature>
    <feature xml:id="id-749" type="Point">{"type": "Feature", "properties": {"name": "Swallowfield", "place_type": "settlement", "is_approximate": false, "placeholder_coordinates": null, "container": 21, "patrons_label_flag": 2, "symbol_flag": 2, "notes": "", "pk": "749", "eats_name": "<eats_name/>", "eats_url": "<eats_url/>", "record_title": "<record_title/>", "record_url": "<record_url/>"}, "geometry": {"type": "Point", "coordinates": [-0.9534450000000003, 51.37738000000001]}}</feature>
    <feature xml:id="id-781" type="Point">{"type": "Feature", "properties": {"name": "Thatcham", "place_type": "settlement", "is_approximate": false, "placeholder_coordinates": null, "container": 21, "patrons_label_flag": 2, "symbol_flag": 2, "notes": "", "pk": "781", "eats_name": "<eats_name/>", "eats_url": "<eats_url/>", "record_title": "<record_title/>", "record_url": "<record_url/>"}, "geometry": {"type": "Point", "coordinates": [-1.261373000000007, 51.40157200000001]}}</feature>
    <feature xml:id="id-109" type="Point">{"type": "Feature", "properties": {"name": "Town Hall", "place_type": "town hall", "is_approximate": false, "placeholder_coordinates": null, "container": 652, "patrons_label_flag": 2, "symbol_flag": 2, "notes": "", "pk": "109", "eats_name": "<eats_name/>", "eats_url": "<eats_url/>", "record_title": "<record_title/>", "record_url": "<record_url/>"}, "geometry": {"type": "Point", "coordinates": [-1.4739772445124542, 52.92315770045091]}}</feature>
    <feature xml:id="id-990" type="Point">{"type": "Feature", "properties": {"name": "Guildhall", "place_type": "guildhall", "is_approximate": false, "placeholder_coordinates": null, "container": 57, "patrons_label_flag": 3, "symbol_flag": 3, "notes": "", "pk": "990", "eats_name": "<eats_name/>", "eats_url": "<eats_url/>", "record_title": "<record_title/>", "record_url": "<record_url/>"}, "geometry": {"type": "Point", "coordinates": [-2.5944590272726096, 51.455279360583184]}}</feature>
    <feature xml:id="id-107" type="Point">{"type": "Feature", "properties": {"name": "Bishop's Palace", "place_type": "residence", "is_approximate": false, "placeholder_coordinates": null, "container": 1031, "patrons_label_flag": 1, "symbol_flag": 1, "notes": "", "pk": "107", "eats_name": "<eats_name/>", "eats_url": "<eats_url/>", "record_title": "<record_title/>", "record_url": "<record_url/>"}, "geometry": {"type": "Point", "coordinates": [-1.8304295703112696, 52.68622757546676]}}</feature>
    <feature xml:id="id-989" type="Point">{"type": "Feature", "properties": {"name": "Guildhall", "place_type": "guildhall", "is_approximate": false, "placeholder_coordinates": null, "container": 639, "patrons_label_flag": 3, "symbol_flag": 3, "notes": "", "pk": "989", "eats_name": "<eats_name/>", "eats_url": "<eats_url/>", "record_title": "<record_title/>", "record_url": "<record_url/>"}, "geometry": {"type": "Point", "coordinates": [-2.6511362691018725, 51.20876238097341]}}</feature>
    <feature xml:id="id-987" type="Point">{"type": "Feature", "properties": {"name": "Guildhall", "place_type": "guildhall", "is_approximate": false, "placeholder_coordinates": null, "container": 67, "patrons_label_flag": 3, "symbol_flag": 3, "notes": "", "pk": "987", "eats_name": "<eats_name/>", "eats_url": "<eats_url/>", "record_title": "<record_title/>", "record_url": "<record_url/>"}, "geometry": {"type": "Point", "coordinates": [-1.2600029419868197, 51.75301443838485]}}</feature>
    <feature xml:id="id-986" type="Point">{"type": "Feature", "properties": {"name": "Guildhall", "place_type": "guildhall", "is_approximate": false, "placeholder_coordinates": null, "container": 607, "patrons_label_flag": 3, "symbol_flag": 3, "notes": "", "pk": "986", "eats_name": "<eats_name/>", "eats_url": "<eats_url/>", "record_title": "<record_title/>", "record_url": "<record_url/>"}, "geometry": {"type": "Point", "coordinates": [-1.3552538079801981, 51.847414286666066]}}</feature>
    <feature xml:id="id-982" type="Point">{"type": "Feature", "properties": {"name": "Guildhall", "place_type": "guildhall", "is_approximate": false, "placeholder_coordinates": null, "container": 606, "patrons_label_flag": 3, "symbol_flag": 3, "notes": "", "pk": "982", "eats_name": "<eats_name/>", "eats_url": "<eats_url/>", "record_title": "<record_title/>", "record_url": "<record_url/>"}, "geometry": {"type": "Point", "coordinates": [-2.711950949907143, 52.05537285692806]}}</feature>
    <feature xml:id="id-147" type="Point">{"type": "Feature", "properties": {"name": "Guildhall", "place_type": "guildhall", "is_approximate": false, "placeholder_coordinates": null, "container": 1037, "patrons_label_flag": 1, "symbol_flag": 1, "notes": "", "pk": "147", "eats_name": "<eats_name/>", "eats_url": "<eats_url/>", "record_title": "<record_title/>", "record_url": "<record_url/>"}, "geometry": {"type": "Point", "coordinates": [-0.6062856829388078, 51.481775553593096]}}</feature>
    <feature xml:id="id-110" type="Point">{"type": "Feature", "properties": {"name": "Guildhall", "place_type": "guildhall", "is_approximate": false, "placeholder_coordinates": null, "container": 1030, "patrons_label_flag": 3, "symbol_flag": 3, "notes": "", "pk": "110", "eats_name": "<eats_name/>", "eats_url": "<eats_url/>", "record_title": "<record_title/>", "record_url": "<record_url/>"}, "geometry": {"type": "Point", "coordinates": [-1.1377225102044102, 52.63461246821538]}}</feature>
    <feature xml:id="id-1324" type="Point">{"type": "Feature", "properties": {"name": "Town Hall", "place_type": "town hall", "is_approximate": true, "placeholder_coordinates": null, "container": 140, "patrons_label_flag": 3, "symbol_flag": 3, "notes": "", "pk": "1324", "eats_name": "<eats_name/>", "eats_url": "<eats_url/>", "record_title": "<record_title/>", "record_url": "<record_url/>"}, "geometry": {"type": "Point", "coordinates": [-1.7305784238563038, 51.421460534357585]}}</feature>
    <feature xml:id="id-773" type="Point">{"type": "Feature", "properties": {"name": "Wokingham", "place_type": "settlement", "is_approximate": false, "placeholder_coordinates": null, "container": 21, "patrons_label_flag": 2, "symbol_flag": 2, "notes": "", "pk": "773", "eats_name": "<eats_name/>", "eats_url": "<eats_url/>", "record_title": "<record_title/>", "record_url": "<record_url/>"}, "geometry": {"type": "Point", "coordinates": [-0.8296759999999903, 51.414134999999995]}}</feature>
    <feature xml:id="id-761" type="Point">{"type": "Feature", "properties": {"name": "Tilehurst", "place_type": "settlement", "is_approximate": false, "placeholder_coordinates": null, "container": 21, "patrons_label_flag": 2, "symbol_flag": 2, "notes": "", "pk": "761", "eats_name": "<eats_name/>", "eats_url": "<eats_url/>", "record_title": "<record_title/>", "record_url": "<record_url/>"}, "geometry": {"type": "Point", "coordinates": [-1.032340000000003, 51.452782000000006]}}</feature>
    <feature xml:id="id-82" type="Point">{"type": "Feature", "properties": {"name": "Halifax", "place_type": "settlement", "is_approximate": false, "placeholder_coordinates": null, "container": 3, "patrons_label_flag": 1, "symbol_flag": 1, "notes": "", "pk": "82", "eats_name": "<eats_name/>", "eats_url": "<eats_url/>", "record_title": "<record_title/>", "record_url": "<record_url/>"}, "geometry": {"type": "Point", "coordinates": [-1.8595488537081069, 53.718088300512456]}}</feature>
    <feature xml:id="id-790" type="Point">{"type": "Feature", "properties": {"name": "Winkfield", "place_type": "settlement", "is_approximate": false, "placeholder_coordinates": null, "container": 21, "patrons_label_flag": 2, "symbol_flag": 2, "notes": "", "pk": "790", "eats_name": "<eats_name/>", "eats_url": "<eats_url/>", "record_title": "<record_title/>", "record_url": "<record_url/>"}, "geometry": {"type": "Point", "coordinates": [-0.698471999999996, 51.44259600000001]}}</feature>
    <feature xml:id="id-988" type="Point">{"type": "Feature", "properties": {"name": "Town Hall", "place_type": "town hall", "is_approximate": false, "placeholder_coordinates": null, "container": 640, "patrons_label_flag": 3, "symbol_flag": 3, "notes": "", "pk": "988", "eats_name": "<eats_name/>", "eats_url": "<eats_url/>", "record_title": "<record_title/>", "record_url": "<record_url/>"}, "geometry": {"type": "Point", "coordinates": [-2.9645889928912537, 50.872516144365996]}}</feature>
    <feature xml:id="id-985" type="Point">{"type": "Feature", "properties": {"name": "Town Hall", "place_type": "town hall", "is_approximate": false, "placeholder_coordinates": null, "container": 614, "patrons_label_flag": 3, "symbol_flag": 3, "notes": "", "pk": "985", "eats_name": "<eats_name/>", "eats_url": "<eats_url/>", "record_title": "<record_title/>", "record_url": "<record_url/>"}, "geometry": {"type": "Point", "coordinates": [-2.220890873091747, 52.19119823302477]}}</feature>
    <feature xml:id="id-983" type="Point">{"type": "Feature", "properties": {"name": "Town Hall", "place_type": "town hall", "is_approximate": false, "placeholder_coordinates": null, "container": 638, "patrons_label_flag": 3, "symbol_flag": 3, "notes": "", "pk": "983", "eats_name": "<eats_name/>", "eats_url": "<eats_url/>", "record_title": "<record_title/>", "record_url": "<record_url/>"}, "geometry": {"type": "Point", "coordinates": [-2.420581051708169, 52.53700456718012]}}</feature>
    <feature xml:id="id-758" type="Point">{"type": "Feature", "properties": {"name": "Henley on Thames", "place_type": "settlement", "is_approximate": false, "placeholder_coordinates": null, "container": 22, "patrons_label_flag": 2, "symbol_flag": 2, "notes": "", "pk": "758", "eats_name": "<eats_name/>", "eats_url": "<eats_url/>", "record_title": "<record_title/>", "record_url": "<record_url/>"}, "geometry": {"type": "Point", "coordinates": [-0.901041999999993, 51.536734]}}</feature>
    <feature xml:id="id-81" type="Point">{"type": "Feature", "properties": {"name": "Heptonstall", "place_type": "settlement", "is_approximate": false, "placeholder_coordinates": null, "container": 3, "patrons_label_flag": 1, "symbol_flag": 1, "notes": "", "pk": "81", "eats_name": "<eats_name/>", "eats_url": "<eats_url/>", "record_title": "<record_title/>", "record_url": "<record_url/>"}, "geometry": {"type": "Point", "coordinates": [-2.020549762644021, 53.74949185783517]}}</feature>
    <feature xml:id="id-755" type="Point">{"type": "Feature", "properties": {"name": "Inkpen", "place_type": "settlement", "is_approximate": false, "placeholder_coordinates": null, "container": 21, "patrons_label_flag": 2, "symbol_flag": 2, "notes": "", "pk": "755", "eats_name": "<eats_name/>", "eats_url": "<eats_url/>", "record_title": "<record_title/>", "record_url": "<record_url/>"}, "geometry": {"type": "Point", "coordinates": [-1.4883099999999934, 51.373459999999994]}}</feature>
    <feature xml:id="id-75" type="Point">{"type": "Feature", "properties": {"name": "Kendal", "place_type": "settlement", "is_approximate": false, "placeholder_coordinates": null, "container": 2, "patrons_label_flag": 1, "symbol_flag": 1, "notes": "", "pk": "75", "eats_name": "<eats_name/>", "eats_url": "<eats_url/>", "record_title": "<record_title/>", "record_url": "<record_url/>"}, "geometry": {"type": "Point", "coordinates": [-2.7460687452090826, 54.32839097163123]}}</feature>
    <feature xml:id="id-760" type="Point">{"type": "Feature", "properties": {"name": "Abbey Church", "place_type": "church", "is_approximate": false, "placeholder_coordinates": null, "container": 144, "patrons_label_flag": 3, "symbol_flag": 3, "notes": "", "pk": "760", "eats_name": "<eats_name/>", "eats_url": "<eats_url/>", "record_title": "<record_title/>", "record_url": "<record_url/>"}, "geometry": {"type": "Point", "coordinates": [-0.9650839999999922, 51.45634000000001]}}</feature>
    <feature xml:id="id-778" type="Point">{"type": "Feature", "properties": {"name": "St Helen's Church", "place_type": "church", "is_approximate": false, "placeholder_coordinates": null, "container": 142, "patrons_label_flag": 3, "symbol_flag": 3, "notes": "", "pk": "778", "eats_name": "<eats_name/>", "eats_url": "<eats_url/>", "record_title": "<record_title/>", "record_url": "<record_url/>"}, "geometry": {"type": "Point", "coordinates": [-1.2828759999999948, 51.667529999999985]}}</feature>
    <feature xml:id="id-767" type="Point">{"type": "Feature", "properties": {"name": "St John the Baptist's Church", "place_type": "church", "is_approximate": false, "placeholder_coordinates": null, "container": 1037, "patrons_label_flag": 3, "symbol_flag": 3, "notes": "", "pk": "767", "eats_name": "<eats_name/>", "eats_url": "<eats_url/>", "record_title": "<record_title/>", "record_url": "<record_url/>"}, "geometry": {"type": "Point", "coordinates": [-0.6061890000000072, 51.48179]}}</feature>
    <feature xml:id="id-757" type="Point">{"type": "Feature", "properties": {"name": "St Laurence's Church", "place_type": "church", "is_approximate": false, "placeholder_coordinates": null, "container": 144, "patrons_label_flag": 3, "symbol_flag": 3, "notes": "", "pk": "757", "eats_name": "<eats_name/>", "eats_url": "<eats_url/>", "record_title": "<record_title/>", "record_url": "<record_url/>"}, "geometry": {"type": "Point", "coordinates": [-0.969347000000004, 51.456410000000005]}}</feature>
    <feature xml:id="id-782" type="Point">{"type": "Feature", "properties": {"name": "St Mary's Church", "place_type": "church", "is_approximate": false, "placeholder_coordinates": null, "container": 781, "patrons_label_flag": 3, "symbol_flag": 3, "notes": "", "pk": "782", "eats_name": "<eats_name/>", "eats_url": "<eats_url/>", "record_title": "<record_title/>", "record_url": "<record_url/>"}, "geometry": {"type": "Point", "coordinates": [-1.2590430000000052, 51.401880000000006]}}</feature>
    <feature xml:id="id-774" type="Point">{"type": "Feature", "properties": {"name": "St Mary's Church", "place_type": "church", "is_approximate": false, "placeholder_coordinates": null, "container": 144, "patrons_label_flag": 3, "symbol_flag": 3, "notes": "", "pk": "774", "eats_name": "<eats_name/>", "eats_url": "<eats_url/>", "record_title": "<record_title/>", "record_url": "<record_url/>"}, "geometry": {"type": "Point", "coordinates": [-0.9737040000000057, 51.45458]}}</feature>
    <feature xml:id="id-779" type="Point">{"type": "Feature", "properties": {"name": "St Michael's Church", "place_type": "church", "is_approximate": false, "placeholder_coordinates": null, "container": 446, "patrons_label_flag": 3, "symbol_flag": 3, "notes": "", "pk": "779", "eats_name": "<eats_name/>", "eats_url": "<eats_url/>", "record_title": "<record_title/>", "record_url": "<record_url/>"}, "geometry": {"type": "Point", "coordinates": [-0.7021430000000077, 51.509100000000004]}}</feature>
    <feature xml:id="id-770" type="Point">{"type": "Feature", "properties": {"name": "St Peter and Paul's Church", "place_type": "church", "is_approximate": false, "placeholder_coordinates": null, "container": 769, "patrons_label_flag": 3, "symbol_flag": 3, "notes": "", "pk": "770", "eats_name": "<eats_name/>", "eats_url": "<eats_url/>", "record_title": "<record_title/>", "record_url": "<record_url/>"}, "geometry": {"type": "Point", "coordinates": [-1.4284969999999984, 51.58869000000001]}}</feature>
    <feature xml:id="id-408" type="Point">{"type": "Feature", "properties": {"name": "Abbot's Hall, Boxley Abbey", "place_type": "religious house", "is_approximate": false, "placeholder_coordinates": null, "container": 14, "patrons_label_flag": 2, "symbol_flag": 2, "notes": "", "pk": "408", "eats_name": "<eats_name/>", "eats_url": "<eats_url/>", "record_title": "<record_title/>", "record_url": "<record_url/>"}, "geometry": {"type": "Point", "coordinates": [0.5246648972592204, 51.299924768428156]}}</feature>
    <feature xml:id="id-745" type="Point">{"type": "Feature", "properties": {"name": "Aldworth", "place_type": "settlement", "is_approximate": false, "placeholder_coordinates": null, "container": 21, "patrons_label_flag": 2, "symbol_flag": 2, "notes": "", "pk": "745", "eats_name": "<eats_name/>", "eats_url": "<eats_url/>", "record_title": "<record_title/>", "record_url": "<record_url/>"}, "geometry": {"type": "Point", "coordinates": [-1.2021760000000055, 51.50968]}}</feature>
    <feature xml:id="id-785" type="Point">{"type": "Feature", "properties": {"name": "Appleton", "place_type": "settlement", "is_approximate": false, "placeholder_coordinates": null, "container": 21, "patrons_label_flag": 2, "symbol_flag": 2, "notes": "", "pk": "785", "eats_name": "<eats_name/>", "eats_url": "<eats_url/>", "record_title": "<record_title/>", "record_url": "<record_url/>"}, "geometry": {"type": "Point", "coordinates": [-1.3604420000000093, 51.71162000000001]}}</feature>
    <feature xml:id="id-752" type="Point">{"type": "Feature", "properties": {"name": "Aston Tirrold", "place_type": "settlement", "is_approximate": false, "placeholder_coordinates": null, "container": 21, "patrons_label_flag": 2, "symbol_flag": 2, "notes": "", "pk": "752", "eats_name": "<eats_name/>", "eats_url": "<eats_url/>", "record_title": "<record_title/>", "record_url": "<record_url/>"}, "geometry": {"type": "Point", "coordinates": [-1.198085000000012, 51.569790000000005]}}</feature>
    <feature xml:id="id-76" type="Point">{"type": "Feature", "properties": {"name": "Blackburn", "place_type": "settlement", "is_approximate": false, "placeholder_coordinates": null, "container": 18, "patrons_label_flag": 1, "symbol_flag": 1, "notes": "", "pk": "76", "eats_name": "<eats_name/>", "eats_url": "<eats_url/>", "record_title": "<record_title/>", "record_url": "<record_url/>"}, "geometry": {"type": "Point", "coordinates": [-2.4762336832092147, 53.74506818163221]}}</feature>
    <feature xml:id="id-762" type="Point">{"type": "Feature", "properties": {"name": "Blewbury", "place_type": "settlement", "is_approximate": false, "placeholder_coordinates": null, "container": 21, "patrons_label_flag": 2, "symbol_flag": 2, "notes": "", "pk": "762", "eats_name": "<eats_name/>", "eats_url": "<eats_url/>", "record_title": "<record_title/>", "record_url": "<record_url/>"}, "geometry": {"type": "Point", "coordinates": [-1.234812999999998, 51.569345000000006]}}</feature>
    <feature xml:id="id-78" type="Point">{"type": "Feature", "properties": {"name": "Bolton", "place_type": "settlement", "is_approximate": false, "placeholder_coordinates": null, "container": 18, "patrons_label_flag": 1, "symbol_flag": 1, "notes": "", "pk": "78", "eats_name": "<eats_name/>", "eats_url": "<eats_url/>", "record_title": "<record_title/>", "record_url": "<record_url/>"}, "geometry": {"type": "Point", "coordinates": [-2.4260217934478554, 53.57633236597118]}}</feature>
    <feature xml:id="id-84" type="Point">{"type": "Feature", "properties": {"name": "Bradford", "place_type": "settlement", "is_approximate": false, "placeholder_coordinates": null, "container": 3, "patrons_label_flag": 1, "symbol_flag": 1, "notes": "", "pk": "84", "eats_name": "<eats_name/>", "eats_url": "<eats_url/>", "record_title": "<record_title/>", "record_url": "<record_url/>"}, "geometry": {"type": "Point", "coordinates": [-1.7410374815666365, 53.789606691189164]}}</feature>
    <feature xml:id="id-788" type="Point">{"type": "Feature", "properties": {"name": "Brightwalton", "place_type": "settlement", "is_approximate": false, "placeholder_coordinates": null, "container": 21, "patrons_label_flag": 2, "symbol_flag": 2, "notes": "", "pk": "788", "eats_name": "<eats_name/>", "eats_url": "<eats_url/>", "record_title": "<record_title/>", "record_url": "<record_url/>"}, "geometry": {"type": "Point", "coordinates": [-1.3877239999999977, 51.51097000000002]}}</feature>
    <feature xml:id="id-793" type="Point">{"type": "Feature", "properties": {"name": "Kintbury", "place_type": "settlement", "is_approximate": false, "placeholder_coordinates": null, "container": 21, "patrons_label_flag": 2, "symbol_flag": 2, "notes": "", "pk": "793", "eats_name": "<eats_name/>", "eats_url": "<eats_url/>", "record_title": "<record_title/>", "record_url": "<record_url/>"}, "geometry": {"type": "Point", "coordinates": [-1.4485120000000058, 51.39939999999999]}}</feature>
    <feature xml:id="id-980" type="Point">{"type": "Feature", "properties": {"name": "Common Hall", "place_type": "town hall", "is_approximate": false, "placeholder_coordinates": null, "container": 66, "patrons_label_flag": 3, "symbol_flag": 3, "notes": "", "pk": "980", "eats_name": "<eats_name/>", "eats_url": "<eats_url/>", "record_title": "<record_title/>", "record_url": "<record_url/>"}, "geometry": {"type": "Point", "coordinates": [-2.891629102021102, 53.19145171698793]}}</feature>
    <feature xml:id="id-88" type="Point">{"type": "Feature", "properties": {"name": "Wakefield", "place_type": "settlement", "is_approximate": false, "placeholder_coordinates": null, "container": 3, "patrons_label_flag": 1, "symbol_flag": 1, "notes": "", "pk": "88", "eats_name": "<eats_name/>", "eats_url": "<eats_url/>", "record_title": "<record_title/>", "record_url": "<record_url/>"}, "geometry": {"type": "Point", "coordinates": [-1.492102733459853, 53.68027032858124]}}</feature>
    <feature xml:id="id-93" type="Point">{"type": "Feature", "properties": {"name": "Wetherby", "place_type": "settlement", "is_approximate": false, "placeholder_coordinates": null, "container": 3, "patrons_label_flag": 1, "symbol_flag": 1, "notes": "", "pk": "93", "eats_name": "<eats_name/>", "eats_url": "<eats_url/>", "record_title": "<record_title/>", "record_url": "<record_url/>"}, "geometry": {"type": "Point", "coordinates": [-1.376849908383362, 53.928858718244584]}}</feature>
    <feature xml:id="id-1023" type="Point">{"type": "Feature", "properties": {"name": "Abbot's House", "place_type": "religious house", "is_approximate": false, "placeholder_coordinates": null, "container": 615, "patrons_label_flag": 3, "symbol_flag": 3, "notes": "", "pk": "1023", "eats_name": "<eats_name/>", "eats_url": "<eats_url/>", "record_title": "<record_title/>", "record_url": "<record_url/>"}, "geometry": {"type": "Point", "coordinates": [-2.743778470629307, 52.7075896091991]}}</feature>
    <feature xml:id="id-1024" type="Point">{"type": "Feature", "properties": {"name": "Court Hall", "place_type": "town hall", "is_approximate": false, "placeholder_coordinates": null, "container": 1311, "patrons_label_flag": 3, "symbol_flag": 3, "notes": "", "pk": "1024", "eats_name": "<eats_name/>", "eats_url": "<eats_url/>", "record_title": "<record_title/>", "record_url": "<record_url/>"}, "geometry": {"type": "Point", "coordinates": [1.0795849535745596, 51.27942812009226]}}</feature>
    <feature xml:id="id-1029" type="Point">{"type": "Feature", "properties": {"name": "Louth", "place_type": "settlement", "is_approximate": false, "placeholder_coordinates": null, "container": 60, "patrons_label_flag": 1, "symbol_flag": 1, "notes": "", "pk": "1029", "eats_name": "<eats_name/>", "eats_url": "<eats_url/>", "record_title": "<record_title/>", "record_url": "<record_url/>"}, "geometry": {"type": "Point", "coordinates": [-0.0028748191149793626, 53.36572607422261]}}</feature>
    <feature xml:id="id-1034" type="Point">{"type": "Feature", "properties": {"name": "Walsall", "place_type": "settlement", "is_approximate": false, "placeholder_coordinates": null, "container": 4, "patrons_label_flag": 2, "symbol_flag": 2, "notes": "", "pk": "1034", "eats_name": "<eats_name/>", "eats_url": "<eats_url/>", "record_title": "<record_title/>", "record_url": "<record_url/>"}, "geometry": {"type": "Point", "coordinates": [-1.977232987965676, 52.582442996705296]}}</feature>
    <feature xml:id="id-769" type="Point">{"type": "Feature", "properties": {"name": "Wantage", "place_type": "settlement", "is_approximate": false, "placeholder_coordinates": null, "container": 21, "patrons_label_flag": 2, "symbol_flag": 2, "notes": "", "pk": "769", "eats_name": "<eats_name/>", "eats_url": "<eats_url/>", "record_title": "<record_title/>", "record_url": "<record_url/>"}, "geometry": {"type": "Point", "coordinates": [-1.4290879999999944, 51.590030000000006]}}</feature>
    <feature xml:id="id-1026" type="Point">{"type": "Feature", "properties": {"name": "Red Lion Inn", "place_type": "victualling-house", "is_approximate": false, "placeholder_coordinates": null, "container": 514, "patrons_label_flag": 3, "symbol_flag": 3, "notes": "", "pk": "1026", "eats_name": "<eats_name/>", "eats_url": "<eats_url/>", "record_title": "<record_title/>", "record_url": "<record_url/>"}, "geometry": {"type": "Point", "coordinates": [1.076448063551869, 51.28133461730739]}}</feature>
    <feature xml:id="id-1027" type="Point">{"type": "Feature", "properties": {"name": "Abbot's House", "place_type": "religious house", "is_approximate": false, "placeholder_coordinates": null, "container": 1291, "patrons_label_flag": 3, "symbol_flag": 3, "notes": "", "pk": "1027", "eats_name": "<eats_name/>", "eats_url": "<eats_url/>", "record_title": "<record_title/>", "record_url": "<record_url/>"}, "geometry": {"type": "Point", "coordinates": [-2.2464637460874144, 51.86746406763469]}}</feature>
    <feature xml:id="id-115" type="Point">{"type": "Feature", "properties": {"name": "Ludlow", "place_type": "settlement", "is_approximate": false, "placeholder_coordinates": null, "container": 32, "patrons_label_flag": 1, "symbol_flag": 1, "notes": "", "pk": "115", "eats_name": "<eats_name/>", "eats_url": "<eats_url/>", "record_title": "<record_title/>", "record_url": "<record_url/>"}, "geometry": {"type": "Point", "coordinates": [-2.720141641344075, 52.36648732152376]}}</feature>
    <feature xml:id="id-704" type="Point">{"type": "Feature", "properties": {"name": "St Peter's Church", "place_type": "church", "is_approximate": false, "placeholder_coordinates": null, "container": 703, "patrons_label_flag": 2, "symbol_flag": 2, "notes": "", "pk": "704", "eats_name": "<eats_name/>", "eats_url": "<eats_url/>", "record_title": "<record_title/>", "record_url": "<record_url/>"}, "geometry": {"type": "Point", "coordinates": [-2.2279039881754823, 52.44514699630238]}}</feature>
    <feature xml:id="id-116" type="Point">{"type": "Feature", "properties": {"name": "Much Wenlock", "place_type": "settlement", "is_approximate": false, "placeholder_coordinates": null, "container": 32, "patrons_label_flag": 1, "symbol_flag": 1, "notes": "", "pk": "116", "eats_name": "<eats_name/>", "eats_url": "<eats_url/>", "record_title": "<record_title/>", "record_url": "<record_url/>"}, "geometry": {"type": "Point", "coordinates": [-2.5491528839902635, 52.590349396304816]}}</feature>
    <feature xml:id="id-71" type="Point">{"type": "Feature", "properties": {"name": "Ormskirk", "place_type": "settlement", "is_approximate": false, "placeholder_coordinates": null, "container": 18, "patrons_label_flag": 1, "symbol_flag": 1, "notes": "", "pk": "71", "eats_name": "<eats_name/>", "eats_url": "<eats_url/>", "record_title": "<record_title/>", "record_url": "<record_url/>"}, "geometry": {"type": "Point", "coordinates": [-2.8847010295469833, 53.565442894730886]}}</feature>
    <feature xml:id="id-87" type="Point">{"type": "Feature", "properties": {"name": "Otley", "place_type": "settlement", "is_approximate": false, "placeholder_coordinates": null, "container": 3, "patrons_label_flag": 1, "symbol_flag": 1, "notes": "", "pk": "87", "eats_name": "<eats_name/>", "eats_url": "<eats_url/>", "record_title": "<record_title/>", "record_url": "<record_url/>"}, "geometry": {"type": "Point", "coordinates": [-1.6865654393681866, 53.90302124202542]}}</feature>
    <feature xml:id="id-1022" type="Point">{"type": "Feature", "properties": {"name": "Grafton Manor", "place_type": "residence", "is_approximate": false, "placeholder_coordinates": null, "container": 7, "patrons_label_flag": 2, "symbol_flag": 2, "notes": "", "pk": "1022", "eats_name": "<eats_name/>", "eats_url": "<eats_url/>", "record_title": "<record_title/>", "record_url": "<record_url/>"}, "geometry": {"type": "Point", "coordinates": [-2.090946449191491, 52.32063754839694]}}</feature>
    <feature xml:id="id-122" type="Point">{"type": "Feature", "properties": {"name": "Cirencester", "place_type": "settlement", "is_approximate": false, "placeholder_coordinates": null, "container": 42, "patrons_label_flag": 1, "symbol_flag": 1, "notes": "", "pk": "122", "eats_name": "<eats_name/>", "eats_url": "<eats_url/>", "record_title": "<record_title/>", "record_url": "<record_url/>"}, "geometry": {"type": "Point", "coordinates": [-1.961869060338879, 51.70964420564416]}}</feature>
    <feature xml:id="id-112" type="Point">{"type": "Feature", "properties": {"name": "Syston", "place_type": "settlement", "is_approximate": false, "placeholder_coordinates": null, "container": 6, "patrons_label_flag": 1, "symbol_flag": 1, "notes": "", "pk": "112", "eats_name": "<eats_name/>", "eats_url": "<eats_url/>", "record_title": "<record_title/>", "record_url": "<record_url/>"}, "geometry": {"type": "Point", "coordinates": [-1.0747461318972182, 52.69980965192263]}}</feature>
    <feature xml:id="id-118" type="Point">{"type": "Feature", "properties": {"name": "Boothall", "place_type": "guildhall", "is_approximate": false, "placeholder_coordinates": null, "container": 627, "patrons_label_flag": 3, "symbol_flag": 3, "notes": "", "pk": "118", "eats_name": "<eats_name/>", "eats_url": "<eats_url/>", "record_title": "<record_title/>", "record_url": "<record_url/>"}, "geometry": {"type": "Point", "coordinates": [-2.2495710420113575, 51.86691721580702]}}</feature>
    <feature xml:id="id-135" type="Point">{"type": "Feature", "properties": {"name": "Church House", "place_type": "church house", "is_approximate": false, "placeholder_coordinates": null, "container": 520, "patrons_label_flag": 3, "symbol_flag": 3, "notes": "", "pk": "135", "eats_name": "<eats_name/>", "eats_url": "<eats_url/>", "record_title": "<record_title/>", "record_url": "<record_url/>"}, "geometry": {"type": "Point", "coordinates": [-3.0055663596353583, 51.12835455780912]}}</feature>
    <feature xml:id="id-97" type="Point">{"type": "Feature", "properties": {"name": "Prescot", "place_type": "settlement", "is_approximate": false, "placeholder_coordinates": null, "container": 18, "patrons_label_flag": 1, "symbol_flag": 1, "notes": "", "pk": "97", "eats_name": "<eats_name/>", "eats_url": "<eats_url/>", "record_title": "<record_title/>", "record_url": "<record_url/>"}, "geometry": {"type": "Point", "coordinates": [-2.803587420100348, 53.428745474032986]}}</feature>
    <feature xml:id="id-991" type="Point">{"type": "Feature", "properties": {"name": "Church House", "place_type": "church house", "is_approximate": false, "placeholder_coordinates": null, "container": 605, "patrons_label_flag": 3, "symbol_flag": 3, "notes": "", "pk": "991", "eats_name": "<eats_name/>", "eats_url": "<eats_url/>", "record_title": "<record_title/>", "record_url": "<record_url/>"}, "geometry": {"type": "Point", "coordinates": [-2.5159342771348836, 50.94661673971899]}}</feature>
    <feature xml:id="id-610" type="Point">{"type": "Feature", "properties": {"name": "St Andrew's Church", "place_type": "church", "is_approximate": false, "placeholder_coordinates": null, "container": 512, "patrons_label_flag": 3, "symbol_flag": 3, "notes": "", "pk": "610", "eats_name": "<eats_name/>", "eats_url": "<eats_url/>", "record_title": "<record_title/>", "record_url": "<record_url/>"}, "geometry": {"type": "Point", "coordinates": [-4.139840780046455, 50.369666278021384]}}</feature>
    <feature xml:id="id-1356" type="Point">{"type": "Feature", "properties": {"name": "Owestry", "place_type": "settlement", "is_approximate": false, "placeholder_coordinates": null, "container": 32, "patrons_label_flag": 2, "symbol_flag": 2, "notes": "", "pk": "1356", "eats_name": "<eats_name/>", "eats_url": "<eats_url/>", "record_title": "<record_title/>", "record_url": "<record_url/>"}, "geometry": {"type": "Point", "coordinates": [-3.0555553434972285, 52.858631623074444]}}</feature>
    <feature xml:id="id-94" type="Point">{"type": "Feature", "properties": {"name": "Tadcaster", "place_type": "settlement", "is_approximate": false, "placeholder_coordinates": null, "container": 3, "patrons_label_flag": 1, "symbol_flag": 1, "notes": "", "pk": "94", "eats_name": "<eats_name/>", "eats_url": "<eats_url/>", "record_title": "<record_title/>", "record_url": "<record_url/>"}, "geometry": {"type": "Point", "coordinates": [-1.2568499137300602, 53.880315196639195]}}</feature>
    <feature xml:id="id-768" type="Point">{"type": "Feature", "properties": {"name": "Cookham", "place_type": "settlement", "is_approximate": false, "placeholder_coordinates": null, "container": 21, "patrons_label_flag": 2, "symbol_flag": 2, "notes": "", "pk": "768", "eats_name": "<eats_name/>", "eats_url": "<eats_url/>", "record_title": "<record_title/>", "record_url": "<record_url/>"}, "geometry": {"type": "Point", "coordinates": [-0.7091510000000083, 51.55994000000001]}}</feature>
    <feature xml:id="id-108" type="Point">{"type": "Feature", "properties": {"name": "Tamworth", "place_type": "settlement", "is_approximate": false, "placeholder_coordinates": null, "container": 4, "patrons_label_flag": 1, "symbol_flag": 1, "notes": "", "pk": "108", "eats_name": "<eats_name/>", "eats_url": "<eats_url/>", "record_title": "<record_title/>", "record_url": "<record_url/>"}, "geometry": {"type": "Point", "coordinates": [-1.6953878943848257, 52.64176264696536]}}</feature>
    <feature xml:id="id-127" type="Point">{"type": "Feature", "properties": {"name": "Yardley", "place_type": "settlement", "is_approximate": false, "placeholder_coordinates": null, "container": 7, "patrons_label_flag": 1, "symbol_flag": 1, "notes": "", "pk": "127", "eats_name": "<eats_name/>", "eats_url": "<eats_url/>", "record_title": "<record_title/>", "record_url": "<record_url/>"}, "geometry": {"type": "Point", "coordinates": [-1.8033304183253571, 52.46215014508629]}}</feature>
    <feature xml:id="id-1035" type="Point">{"type": "Feature", "properties": {"name": "Town Hall", "place_type": "town hall", "is_approximate": false, "placeholder_coordinates": null, "container": 1034, "patrons_label_flag": 2, "symbol_flag": 2, "notes": "", "pk": "1035", "eats_name": "<eats_name/>", "eats_url": "<eats_url/>", "record_title": "<record_title/>", "record_url": "<record_url/>"}, "geometry": {"type": "Point", "coordinates": [-1.977232987965676, 52.582442996705296]}}</feature>
    <feature xml:id="id-1033" type="Point">{"type": "Feature", "properties": {"name": "Town Hall", "place_type": "town hall", "is_approximate": false, "placeholder_coordinates": null, "container": 723, "patrons_label_flag": 3, "symbol_flag": 3, "notes": "", "pk": "1033", "eats_name": "<eats_name/>", "eats_url": "<eats_url/>", "record_title": "<record_title/>", "record_url": "<record_url/>"}, "geometry": {"type": "Point", "coordinates": [-2.116788986553985, 52.807231996383244]}}</feature>
    <feature xml:id="id-95" type="Point">{"type": "Feature", "properties": {"name": "Doncaster", "place_type": "settlement", "is_approximate": false, "placeholder_coordinates": null, "container": 3, "patrons_label_flag": 1, "symbol_flag": 1, "notes": "", "pk": "95", "eats_name": "<eats_name/>", "eats_url": "<eats_url/>", "record_title": "<record_title/>", "record_url": "<record_url/>"}, "geometry": {"type": "Point", "coordinates": [-1.1327556935574878, 53.524564555588555]}}</feature>
    <feature xml:id="id-124" type="Point">{"type": "Feature", "properties": {"name": "Evesham", "place_type": "settlement", "is_approximate": false, "placeholder_coordinates": null, "container": 7, "patrons_label_flag": 1, "symbol_flag": 1, "notes": "", "pk": "124", "eats_name": "<eats_name/>", "eats_url": "<eats_url/>", "record_title": "<record_title/>", "record_url": "<record_url/>"}, "geometry": {"type": "Point", "coordinates": [-1.9502857015684187, 52.08924983928966]}}</feature>
    <feature xml:id="id-1025" type="Point">{"type": "Feature", "properties": {"name": "Town Hall", "place_type": "town hall", "is_approximate": false, "placeholder_coordinates": null, "container": 176, "patrons_label_flag": 3, "symbol_flag": 3, "notes": "", "pk": "1025", "eats_name": "<eats_name/>", "eats_url": "<eats_url/>", "record_title": "<record_title/>", "record_url": "<record_url/>"}, "geometry": {"type": "Point", "coordinates": [1.31345261874692, 51.12479202885233]}}</feature>
    <feature xml:id="id-1021" type="Point">{"type": "Feature", "properties": {"name": "Town Hall", "place_type": "town hall", "is_approximate": false, "placeholder_coordinates": null, "container": 520, "patrons_label_flag": 3, "symbol_flag": 3, "notes": "", "pk": "1021", "eats_name": "<eats_name/>", "eats_url": "<eats_url/>", "record_title": "<record_title/>", "record_url": "<record_url/>"}, "geometry": {"type": "Point", "coordinates": [-3.0031335664374383, 51.128719131041265]}}</feature>
    <feature xml:id="id-1018" type="Point">{"type": "Feature", "properties": {"name": "Town Hall", "place_type": "town hall", "is_approximate": false, "placeholder_coordinates": null, "container": 624, "patrons_label_flag": 3, "symbol_flag": 3, "notes": "", "pk": "1018", "eats_name": "<eats_name/>", "eats_url": "<eats_url/>", "record_title": "<record_title/>", "record_url": "<record_url/>"}, "geometry": {"type": "Point", "coordinates": [-2.4548610279531675, 50.607986663028335]}}</feature>
    <feature xml:id="id-72" type="Point">{"type": "Feature", "properties": {"name": "Garstang", "place_type": "settlement", "is_approximate": false, "placeholder_coordinates": null, "container": 18, "patrons_label_flag": 1, "symbol_flag": 1, "notes": "", "pk": "72", "eats_name": "<eats_name/>", "eats_url": "<eats_url/>", "record_title": "<record_title/>", "record_url": "<record_url/>"}, "geometry": {"type": "Point", "coordinates": [-2.7665094450702257, 53.90125998278053]}}</feature>
    <feature xml:id="id-1012" type="Point">{"type": "Feature", "properties": {"name": "Town Hall", "place_type": "town hall", "is_approximate": false, "placeholder_coordinates": null, "container": 558, "patrons_label_flag": 3, "symbol_flag": 3, "notes": "", "pk": "1012", "eats_name": "<eats_name/>", "eats_url": "<eats_url/>", "record_title": "<record_title/>", "record_url": "<record_url/>"}, "geometry": {"type": "Point", "coordinates": [1.1811086240429016, 51.080095960355706]}}</feature>
    <feature xml:id="id-119" type="Point">{"type": "Feature", "properties": {"name": "Grimley Manor", "place_type": "residence", "is_approximate": false, "placeholder_coordinates": null, "container": 7, "patrons_label_flag": 3, "symbol_flag": 3, "notes": "", "pk": "119", "eats_name": "<eats_name/>", "eats_url": "<eats_url/>", "record_title": "<record_title/>", "record_url": "<record_url/>"}, "geometry": {"type": "Point", "coordinates": [-2.2428075507787337, 52.24067695778639]}}</feature>
    <feature xml:id="id-1032" type="Point">{"type": "Feature", "properties": {"name": "Guildhall", "place_type": "guildhall", "is_approximate": false, "placeholder_coordinates": null, "container": 715, "patrons_label_flag": 3, "symbol_flag": 3, "notes": "", "pk": "1032", "eats_name": "<eats_name/>", "eats_url": "<eats_url/>", "record_title": "<record_title/>", "record_url": "<record_url/>"}, "geometry": {"type": "Point", "coordinates": [-2.2270159873474697, 53.01080999739226]}}</feature>
    <feature xml:id="id-1011" type="Point">{"type": "Feature", "properties": {"name": "Town Hall", "place_type": "town hall", "is_approximate": false, "placeholder_coordinates": null, "container": 631, "patrons_label_flag": 3, "symbol_flag": 3, "notes": "", "pk": "1011", "eats_name": "<eats_name/>", "eats_url": "<eats_url/>", "record_title": "<record_title/>", "record_url": "<record_url/>"}, "geometry": {"type": "Point", "coordinates": [1.1252595426673464, 51.295468839861314]}}</feature>
    <feature xml:id="id-1020" type="Point">{"type": "Feature", "properties": {"name": "Guildhall", "place_type": "guildhall", "is_approximate": false, "placeholder_coordinates": null, "container": 55, "patrons_label_flag": 3, "symbol_flag": 3, "notes": "", "pk": "1020", "eats_name": "<eats_name/>", "eats_url": "<eats_url/>", "record_title": "<record_title/>", "record_url": "<record_url/>"}, "geometry": {"type": "Point", "coordinates": [1.2927110847752457, 52.628633782008215]}}</feature>
    <feature xml:id="id-1009" type="Point">{"type": "Feature", "properties": {"name": "Town Hall", "place_type": "town hall", "is_approximate": false, "placeholder_coordinates": null, "container": 562, "patrons_label_flag": 1, "symbol_flag": 1, "notes": "", "pk": "1009", "eats_name": "<eats_name/>", "eats_url": "<eats_url/>", "record_title": "<record_title/>", "record_url": "<record_url/>"}, "geometry": {"type": "Point", "coordinates": [0.9395657449981953, 50.98536548544511]}}</feature>
    <feature xml:id="id-1019" type="Point">{"type": "Feature", "properties": {"name": "Guildhall", "place_type": "guildhall", "is_approximate": false, "placeholder_coordinates": null, "container": 68, "patrons_label_flag": 3, "symbol_flag": 3, "notes": "", "pk": "1019", "eats_name": "<eats_name/>", "eats_url": "<eats_url/>", "record_title": "<record_title/>", "record_url": "<record_url/>"}, "geometry": {"type": "Point", "coordinates": [0.1193061089783694, 52.20479102522913]}}</feature>
    <feature xml:id="id-1037" type="Point">{"type": "Feature", "properties": {"name": "Windsor", "place_type": "settlement", "is_approximate": false, "placeholder_coordinates": null, "container": 21, "patrons_label_flag": 3, "symbol_flag": 3, "notes": "", "pk": "1037", "eats_name": "<eats_name/>", "eats_url": "<eats_url/>", "record_title": "<record_title/>", "record_url": "<record_url/>"}, "geometry": {"type": "Point", "coordinates": [-0.6076188969064803, 51.483428196370575]}}</feature>
    <feature xml:id="id-1008" type="Point">{"type": "Feature", "properties": {"name": "Guildhall", "place_type": "guildhall", "is_approximate": false, "placeholder_coordinates": null, "container": 634, "patrons_label_flag": 3, "symbol_flag": 3, "notes": "", "pk": "1008", "eats_name": "<eats_name/>", "eats_url": "<eats_url/>", "record_title": "<record_title/>", "record_url": "<record_url/>"}, "geometry": {"type": "Point", "coordinates": [0.5029922163763849, 51.39094222684483]}}</feature>
    <feature xml:id="id-1007" type="Point">{"type": "Feature", "properties": {"name": "Town Hall", "place_type": "town hall", "is_approximate": false, "placeholder_coordinates": null, "container": 633, "patrons_label_flag": 3, "symbol_flag": 3, "notes": "", "pk": "1007", "eats_name": "<eats_name/>", "eats_url": "<eats_url/>", "record_title": "<record_title/>", "record_url": "<record_url/>"}, "geometry": {"type": "Point", "coordinates": [0.5219100966594622, 51.27366689258939]}}</feature>
    <feature xml:id="id-1006" type="Point">{"type": "Feature", "properties": {"name": "Town Hall", "place_type": "town hall", "is_approximate": false, "placeholder_coordinates": null, "container": 642, "patrons_label_flag": 3, "symbol_flag": 3, "notes": "", "pk": "1006", "eats_name": "<eats_name/>", "eats_url": "<eats_url/>", "record_title": "<record_title/>", "record_url": "<record_url/>"}, "geometry": {"type": "Point", "coordinates": [0.008706743024897472, 50.87273319713213]}}</feature>
    <feature xml:id="id-1005" type="Point">{"type": "Feature", "properties": {"name": "Town Hall", "place_type": "town hall", "is_approximate": false, "placeholder_coordinates": null, "container": 655, "patrons_label_flag": 3, "symbol_flag": 3, "notes": "", "pk": "1005", "eats_name": "<eats_name/>", "eats_url": "<eats_url/>", "record_title": "<record_title/>", "record_url": "<record_url/>"}, "geometry": {"type": "Point", "coordinates": [0.47287040144439174, 51.73468609617026]}}</feature>
    <feature xml:id="id-1002" type="Point">{"type": "Feature", "properties": {"name": "Town Hall", "place_type": "town hall", "is_approximate": false, "placeholder_coordinates": null, "container": 622, "patrons_label_flag": 3, "symbol_flag": 3, "notes": "", "pk": "1002", "eats_name": "<eats_name/>", "eats_url": "<eats_url/>", "record_title": "<record_title/>", "record_url": "<record_url/>"}, "geometry": {"type": "Point", "coordinates": [-1.9866634137834358, 50.71539739967541]}}</feature>
    <feature xml:id="id-747" type="Point">{"type": "Feature", "properties": {"name": "All Saints' Church", "place_type": "church", "is_approximate": false, "placeholder_coordinates": null, "container": 746, "patrons_label_flag": 3, "symbol_flag": 3, "notes": "", "pk": "747", "eats_name": "<eats_name/>", "eats_url": "<eats_url/>", "record_title": "<record_title/>", "record_url": "<record_url/>"}, "geometry": {"type": "Point", "coordinates": [-1.6611480000000085, 51.64231000000001]}}</feature>
    <feature xml:id="id-229" type="Point">{"type": "Feature", "properties": {"name": "Abbot's House", "place_type": "religious house", "is_approximate": false, "placeholder_coordinates": null, "container": 15, "patrons_label_flag": 3, "symbol_flag": 3, "notes": "", "pk": "229", "eats_name": "<eats_name/>", "eats_url": "<eats_url/>", "record_title": "<record_title/>", "record_url": "<record_url/>"}, "geometry": {"type": "Point", "coordinates": [0.49809178343232396, 50.98727229944088]}}</feature>
    <feature xml:id="id-117" type="Point">{"type": "Feature", "properties": {"name": "Bewdley", "place_type": "settlement", "is_approximate": false, "placeholder_coordinates": null, "container": 7, "patrons_label_flag": 1, "symbol_flag": 1, "notes": "", "pk": "117", "eats_name": "<eats_name/>", "eats_url": "<eats_url/>", "record_title": "<record_title/>", "record_url": "<record_url/>"}, "geometry": {"type": "Point", "coordinates": [-2.315501665190651, 52.375397434750944]}}</feature>
    <feature xml:id="id-1004" type="Point">{"type": "Feature", "properties": {"name": "Common Hall", "place_type": "town hall", "is_approximate": false, "placeholder_coordinates": null, "container": 55, "patrons_label_flag": 3, "symbol_flag": 3, "notes": "", "pk": "1004", "eats_name": "<eats_name/>", "eats_url": "<eats_url/>", "record_title": "<record_title/>", "record_url": "<record_url/>"}, "geometry": {"type": "Point", "coordinates": [1.2960384454859215, 52.63094723814754]}}</feature>
    <feature xml:id="id-120" type="Point">{"type": "Feature", "properties": {"name": "Chaddesley Corbett", "place_type": "settlement", "is_approximate": false, "placeholder_coordinates": null, "container": 7, "patrons_label_flag": 1, "symbol_flag": 1, "notes": "", "pk": "120", "eats_name": "<eats_name/>", "eats_url": "<eats_url/>", "record_title": "<record_title/>", "record_url": "<record_url/>"}, "geometry": {"type": "Point", "coordinates": [-2.1541659801994983, 52.35664194836883]}}</feature>
    <feature xml:id="id-1003" type="Point">{"type": "Feature", "properties": {"name": "Guildhall", "place_type": "guildhall", "is_approximate": false, "placeholder_coordinates": null, "container": 635, "patrons_label_flag": 3, "symbol_flag": 3, "notes": "", "pk": "1003", "eats_name": "<eats_name/>", "eats_url": "<eats_url/>", "record_title": "<record_title/>", "record_url": "<record_url/>"}, "geometry": {"type": "Point", "coordinates": [-0.02438710939705302, 52.97611974152523]}}</feature>
    <feature xml:id="id-999" type="Point">{"type": "Feature", "properties": {"name": "Guildhall", "place_type": "guildhall", "is_approximate": false, "placeholder_coordinates": null, "container": 56, "patrons_label_flag": 3, "symbol_flag": 3, "notes": "", "pk": "999", "eats_name": "<eats_name/>", "eats_url": "<eats_url/>", "record_title": "<record_title/>", "record_url": "<record_url/>"}, "geometry": {"type": "Point", "coordinates": [-3.5320618042546648, 50.723364942749704]}}</feature>
    <feature xml:id="id-998" type="Point">{"type": "Feature", "properties": {"name": "Guildhall", "place_type": "guildhall", "is_approximate": false, "placeholder_coordinates": null, "container": 620, "patrons_label_flag": 3, "symbol_flag": 3, "notes": "", "pk": "998", "eats_name": "<eats_name/>", "eats_url": "<eats_url/>", "record_title": "<record_title/>", "record_url": "<record_url/>"}, "geometry": {"type": "Point", "coordinates": [-3.6888565378239386, 50.432840844461076]}}</feature>
    <feature xml:id="id-997" type="Point">{"type": "Feature", "properties": {"name": "Guildhall", "place_type": "guildhall", "is_approximate": false, "placeholder_coordinates": null, "container": 512, "patrons_label_flag": 3, "symbol_flag": 3, "notes": "", "pk": "997", "eats_name": "<eats_name/>", "eats_url": "<eats_url/>", "record_title": "<record_title/>", "record_url": "<record_url/>"}, "geometry": {"type": "Point", "coordinates": [-4.1398574976939, 50.37003777749019]}}</feature>
    <feature xml:id="id-996" type="Point">{"type": "Feature", "properties": {"name": "Guildhall", "place_type": "guildhall", "is_approximate": false, "placeholder_coordinates": null, "container": 616, "patrons_label_flag": 3, "symbol_flag": 3, "notes": "", "pk": "996", "eats_name": "<eats_name/>", "eats_url": "<eats_url/>", "record_title": "<record_title/>", "record_url": "<record_url/>"}, "geometry": {"type": "Point", "coordinates": [-4.361191732376618, 50.63851986234712]}}</feature>
    <feature xml:id="id-992" type="Point">{"type": "Feature", "properties": {"name": "Guildhall", "place_type": "guildhall", "is_approximate": false, "placeholder_coordinates": null, "container": 608, "patrons_label_flag": 3, "symbol_flag": 3, "notes": "", "pk": "992", "eats_name": "<eats_name/>", "eats_url": "<eats_url/>", "record_title": "<record_title/>", "record_url": "<record_url/>"}, "geometry": {"type": "Point", "coordinates": [-2.358743296693792, 51.38220970895611]}}</feature>
    <feature xml:id="id-85" type="Point">{"type": "Feature", "properties": {"name": "Ilkley", "place_type": "settlement", "is_approximate": false, "placeholder_coordinates": null, "container": 3, "patrons_label_flag": 1, "symbol_flag": 1, "notes": "", "pk": "85", "eats_name": "<eats_name/>", "eats_url": "<eats_url/>", "record_title": "<record_title/>", "record_url": "<record_url/>"}, "geometry": {"type": "Point", "coordinates": [-1.824108351134049, 53.92457530000473]}}</feature>
    <feature xml:id="id-125" type="Point">{"type": "Feature", "properties": {"name": "Inkberrow", "place_type": "settlement", "is_approximate": false, "placeholder_coordinates": null, "container": 7, "patrons_label_flag": 1, "symbol_flag": 1, "notes": "", "pk": "125", "eats_name": "<eats_name/>", "eats_url": "<eats_url/>", "record_title": "<record_title/>", "record_url": "<record_url/>"}, "geometry": {"type": "Point", "coordinates": [-1.9736791440055386, 52.21099889669761]}}</feature>
    <feature xml:id="id-114" type="Point">{"type": "Feature", "properties": {"name": "Kingsland", "place_type": "settlement", "is_approximate": false, "placeholder_coordinates": null, "container": 30, "patrons_label_flag": 1, "symbol_flag": 1, "notes": "", "pk": "114", "eats_name": "<eats_name/>", "eats_url": "<eats_url/>", "record_title": "<record_title/>", "record_url": "<record_url/>"}, "geometry": {"type": "Point", "coordinates": [-2.808672619430397, 52.24651121250298]}}</feature>
    <feature xml:id="id-90" type="Point">{"type": "Feature", "properties": {"name": "Knaresborough", "place_type": "settlement", "is_approximate": false, "placeholder_coordinates": null, "container": 3, "patrons_label_flag": 1, "symbol_flag": 1, "notes": "", "pk": "90", "eats_name": "<eats_name/>", "eats_url": "<eats_url/>", "record_title": "<record_title/>", "record_url": "<record_url/>"}, "geometry": {"type": "Point", "coordinates": [-1.4634267111635235, 54.0086209667508]}}</feature>
    <feature xml:id="id-1015" type="Point">{"type": "Feature", "properties": {"name": "Lea Hall", "place_type": "residence", "is_approximate": false, "placeholder_coordinates": null, "container": 17, "patrons_label_flag": 2, "symbol_flag": 2, "notes": "", "pk": "1015", "eats_name": "<eats_name/>", "eats_url": "<eats_url/>", "record_title": "<record_title/>", "record_url": "<record_url/>"}, "geometry": {"type": "Point", "coordinates": [-2.9130329440888563, 53.23613170536057]}}</feature>
    <feature xml:id="id-1030" type="Point">{"type": "Feature", "properties": {"name": "Leicester", "place_type": "settlement", "is_approximate": false, "placeholder_coordinates": null, "container": 6, "patrons_label_flag": 1, "symbol_flag": 1, "notes": "", "pk": "1030", "eats_name": "<eats_name/>", "eats_url": "<eats_url/>", "record_title": "<record_title/>", "record_url": "<record_url/>"}, "geometry": {"type": "Point", "coordinates": [-1.1372509863083995, 52.63463299656108]}}</feature>
    <feature xml:id="id-1001" type="Point">{"type": "Feature", "properties": {"name": "Town Hall", "place_type": "town hall", "is_approximate": false, "placeholder_coordinates": null, "container": 623, "patrons_label_flag": 3, "symbol_flag": 3, "notes": "", "pk": "1001", "eats_name": "<eats_name/>", "eats_url": "<eats_url/>", "record_title": "<record_title/>", "record_url": "<record_url/>"}, "geometry": {"type": "Point", "coordinates": [-2.758091143896527, 50.733446386701154]}}</feature>
    <feature xml:id="id-123" type="Point">{"type": "Feature", "properties": {"name": "Winchcombe", "place_type": "settlement", "is_approximate": false, "placeholder_coordinates": null, "container": 42, "patrons_label_flag": 1, "symbol_flag": 1, "notes": "", "pk": "123", "eats_name": "<eats_name/>", "eats_url": "<eats_url/>", "record_title": "<record_title/>", "record_url": "<record_url/>"}, "geometry": {"type": "Point", "coordinates": [-1.9572874412857697, 51.95000686089708]}}</feature>
    <feature xml:id="id-1000" type="Point">{"type": "Feature", "properties": {"name": "Town Hall", "place_type": "town hall", "is_approximate": false, "placeholder_coordinates": null, "container": 613, "patrons_label_flag": 3, "symbol_flag": 3, "notes": "", "pk": "1000", "eats_name": "<eats_name/>", "eats_url": "<eats_url/>", "record_title": "<record_title/>", "record_url": "<record_url/>"}, "geometry": {"type": "Point", "coordinates": [-2.9316303782421, 50.72503934794128]}}</feature>
    <feature xml:id="id-143" type="Point">{"type": "Feature", "properties": {"name": "Wallingford", "place_type": "settlement", "is_approximate": false, "placeholder_coordinates": null, "container": 21, "patrons_label_flag": 1, "symbol_flag": 1, "notes": "", "pk": "143", "eats_name": "<eats_name/>", "eats_url": "<eats_url/>", "record_title": "<record_title/>", "record_url": "<record_url/>"}, "geometry": {"type": "Point", "coordinates": [-1.1247478056876523, 51.59979959900098]}}</feature>
    <feature xml:id="id-99" type="Point">{"type": "Feature", "properties": {"name": "Wem", "place_type": "settlement", "is_approximate": false, "placeholder_coordinates": null, "container": 32, "patrons_label_flag": 1, "symbol_flag": 1, "notes": "", "pk": "99", "eats_name": "<eats_name/>", "eats_url": "<eats_url/>", "record_title": "<record_title/>", "record_url": "<record_url/>"}, "geometry": {"type": "Point", "coordinates": [-2.690013669359118, 52.832045054780615]}}</feature>
    <feature xml:id="id-151" type="Point">{"type": "Feature", "properties": {"name": "Liskeard", "place_type": "settlement", "is_approximate": false, "placeholder_coordinates": null, "container": 38, "patrons_label_flag": 1, "symbol_flag": 1, "notes": "", "pk": "151", "eats_name": "<eats_name/>", "eats_url": "<eats_url/>", "record_title": "<record_title/>", "record_url": "<record_url/>"}, "geometry": {"type": "Point", "coordinates": [-4.4566263523546406, 50.45044540784516]}}</feature>
    <feature xml:id="id-159" type="Point">{"type": "Feature", "properties": {"name": "Long Sutton", "place_type": "settlement", "is_approximate": false, "placeholder_coordinates": null, "container": 60, "patrons_label_flag": 1, "symbol_flag": 1, "notes": "", "pk": "159", "eats_name": "<eats_name/>", "eats_url": "<eats_url/>", "record_title": "<record_title/>", "record_url": "<record_url/>"}, "geometry": {"type": "Point", "coordinates": [0.12053203582738055, 52.78487130098868]}}</feature>
    <feature xml:id="id-1036" type="Point">{"type": "Feature", "properties": {"name": "Middleton Hall", "place_type": "residence", "is_approximate": false, "placeholder_coordinates": null, "container": 8, "patrons_label_flag": 2, "symbol_flag": 2, "notes": "", "pk": "1036", "eats_name": "<eats_name/>", "eats_url": "<eats_url/>", "record_title": "<record_title/>", "record_url": "<record_url/>"}, "geometry": {"type": "Point", "coordinates": [-1.7171399872370794, 52.58051299613794]}}</feature>
    <feature xml:id="id-207" type="Point">{"type": "Feature", "properties": {"name": "Tiverton Castle", "place_type": "residence", "is_approximate": false, "placeholder_coordinates": null, "container": 1342, "patrons_label_flag": 3, "symbol_flag": 3, "notes": "", "pk": "207", "eats_name": "<eats_name/>", "eats_url": "<eats_url/>", "record_title": "<record_title/>", "record_url": "<record_url/>"}, "geometry": {"type": "Point", "coordinates": [-3.488892461080745, 50.906787840918554]}}</feature>
    <feature xml:id="id-203" type="Point">{"type": "Feature", "properties": {"name": "Bevere Manor", "place_type": "residence", "is_approximate": false, "placeholder_coordinates": null, "container": 7, "patrons_label_flag": 2, "symbol_flag": 2, "notes": "", "pk": "203", "eats_name": "<eats_name/>", "eats_url": "<eats_url/>", "record_title": "<record_title/>", "record_url": "<record_url/>"}, "geometry": {"type": "Point", "coordinates": [-2.235705942656361, 52.23349507732713]}}</feature>
    <feature xml:id="id-1028" type="Point">{"type": "Feature", "properties": {"name": "Council House", "place_type": "other site", "is_approximate": false, "placeholder_coordinates": null, "container": 615, "patrons_label_flag": 3, "symbol_flag": 3, "notes": "", "pk": "1028", "eats_name": "<eats_name/>", "eats_url": "<eats_url/>", "record_title": "<record_title/>", "record_url": "<record_url/>"}, "geometry": {"type": "Point", "coordinates": [-2.750369094560222, 52.70987285718433]}}</feature>
    <feature xml:id="id-208" type="Point">{"type": "Feature", "properties": {"name": "Thornbury Castle", "place_type": "residence", "is_approximate": false, "placeholder_coordinates": null, "container": 1343, "patrons_label_flag": 3, "symbol_flag": 3, "notes": "", "pk": "208", "eats_name": "<eats_name/>", "eats_url": "<eats_url/>", "record_title": "<record_title/>", "record_url": "<record_url/>"}, "geometry": {"type": "Point", "coordinates": [-2.530108156199167, 51.61394984422634]}}</feature>
    <feature xml:id="id-91" type="Point">{"type": "Feature", "properties": {"name": "Ripon", "place_type": "settlement", "is_approximate": false, "placeholder_coordinates": null, "container": 3, "patrons_label_flag": 1, "symbol_flag": 1, "notes": "", "pk": "91", "eats_name": "<eats_name/>", "eats_url": "<eats_url/>", "record_title": "<record_title/>", "record_url": "<record_url/>"}, "geometry": {"type": "Point", "coordinates": [-1.51747736444198, 54.13346360609029]}}</feature>
    <feature xml:id="id-89" type="Point">{"type": "Feature", "properties": {"name": "Leeds", "place_type": "settlement", "is_approximate": false, "placeholder_coordinates": null, "container": 3, "patrons_label_flag": 1, "symbol_flag": 1, "notes": "", "pk": "89", "eats_name": "<eats_name/>", "eats_url": "<eats_url/>", "record_title": "<record_title/>", "record_url": "<record_url/>"}, "geometry": {"type": "Point", "coordinates": [-1.5349552156801871, 53.79639120214874]}}</feature>
    <feature xml:id="id-86" type="Point">{"type": "Feature", "properties": {"name": "Pateley Bridge", "place_type": "settlement", "is_approximate": false, "placeholder_coordinates": null, "container": 3, "patrons_label_flag": 2, "symbol_flag": 2, "notes": "", "pk": "86", "eats_name": "<eats_name/>", "eats_url": "<eats_url/>", "record_title": "<record_title/>", "record_url": "<record_url/>"}, "geometry": {"type": "Point", "coordinates": [-1.7523890130099942, 54.08358470429446]}}</feature>
    <feature xml:id="id-205" type="Point">{"type": "Feature", "properties": {"name": "Crowle Manor", "place_type": "residence", "is_approximate": false, "placeholder_coordinates": null, "container": 7, "patrons_label_flag": 2, "symbol_flag": 2, "notes": "", "pk": "205", "eats_name": "<eats_name/>", "eats_url": "<eats_url/>", "record_title": "<record_title/>", "record_url": "<record_url/>"}, "geometry": {"type": "Point", "coordinates": [-2.1170257088010507, 52.201408258643625]}}</feature>
    <feature xml:id="id-214" type="Point">{"type": "Feature", "properties": {"name": "Wingfield Manor", "place_type": "residence", "is_approximate": false, "placeholder_coordinates": null, "container": 5, "patrons_label_flag": 3, "symbol_flag": 3, "notes": "", "pk": "214", "eats_name": "<eats_name/>", "eats_url": "<eats_url/>", "record_title": "<record_title/>", "record_url": "<record_url/>"}, "geometry": {"type": "Point", "coordinates": [-1.442618896795236, 53.08898801937741]}}</feature>
    <feature xml:id="id-213" type="Point">{"type": "Feature", "properties": {"name": "Darley Abbey", "place_type": "religious house", "is_approximate": false, "placeholder_coordinates": null, "container": 5, "patrons_label_flag": 2, "symbol_flag": 2, "notes": "", "pk": "213", "eats_name": "<eats_name/>", "eats_url": "<eats_url/>", "record_title": "<record_title/>", "record_url": "<record_url/>"}, "geometry": {"type": "Point", "coordinates": [-1.4775671369666257, 52.93841445799524]}}</feature>
    <feature xml:id="id-219" type="Point">{"type": "Feature", "properties": {"name": "DItton Park", "place_type": "residence", "is_approximate": false, "placeholder_coordinates": null, "container": 23, "patrons_label_flag": 2, "symbol_flag": 2, "notes": "", "pk": "219", "eats_name": "<eats_name/>", "eats_url": "<eats_url/>", "record_title": "<record_title/>", "record_url": "<record_url/>"}, "geometry": {"type": "Point", "coordinates": [-0.5606120325855137, 51.49134636661628]}}</feature>
    <feature xml:id="id-164" type="Point">{"type": "Feature", "properties": {"name": "Maldon", "place_type": "settlement", "is_approximate": false, "placeholder_coordinates": null, "container": 48, "patrons_label_flag": 1, "symbol_flag": 1, "notes": "", "pk": "164", "eats_name": "<eats_name/>", "eats_url": "<eats_url/>", "record_title": "<record_title/>", "record_url": "<record_url/>"}, "geometry": {"type": "Point", "coordinates": [0.6743564219082696, 51.7312325919145]}}</feature>
    <feature xml:id="id-132" type="Point">{"type": "Feature", "properties": {"name": "Guildhall 1", "place_type": "guildhall", "is_approximate": false, "placeholder_coordinates": null, "container": 518, "patrons_label_flag": 3, "symbol_flag": 3, "notes": "", "pk": "132", "eats_name": "<eats_name/>", "eats_url": "<eats_url/>", "record_title": "<record_title/>", "record_url": "<record_url/>"}, "geometry": {"type": "Point", "coordinates": [-4.060810079876092, 51.07926357934364]}}</feature>
    <feature xml:id="id-153" type="Point">{"type": "Feature", "properties": {"name": "St Saviour's Church", "place_type": "church", "is_approximate": false, "placeholder_coordinates": null, "container": 597, "patrons_label_flag": 3, "symbol_flag": 3, "notes": "", "pk": "153", "eats_name": "<eats_name/>", "eats_url": "<eats_url/>", "record_title": "<record_title/>", "record_url": "<record_url/>"}, "geometry": {"type": "Point", "coordinates": [-3.5793327714725303, 50.35201513026832]}}</feature>
    <feature xml:id="id-157" type="Point">{"type": "Feature", "properties": {"name": "Market Deeping", "place_type": "settlement", "is_approximate": false, "placeholder_coordinates": null, "container": 60, "patrons_label_flag": 1, "symbol_flag": 1, "notes": "", "pk": "157", "eats_name": "<eats_name/>", "eats_url": "<eats_url/>", "record_title": "<record_title/>", "record_url": "<record_url/>"}, "geometry": {"type": "Point", "coordinates": [-0.31986737494267964, 52.67861567340311]}}</feature>
    <feature xml:id="id-140" type="Point">{"type": "Feature", "properties": {"name": "Marlborough", "place_type": "settlement", "is_approximate": false, "placeholder_coordinates": null, "container": 20, "patrons_label_flag": 1, "symbol_flag": 1, "notes": "", "pk": "140", "eats_name": "<eats_name/>", "eats_url": "<eats_url/>", "record_title": "<record_title/>", "record_url": "<record_url/>"}, "geometry": {"type": "Point", "coordinates": [-1.730766741089337, 51.420607041381956]}}</feature>
    <feature xml:id="id-217" type="Point">{"type": "Feature", "properties": {"name": "Maxstoke Priory", "place_type": "religious house", "is_approximate": false, "placeholder_coordinates": null, "container": 8, "patrons_label_flag": 3, "symbol_flag": 3, "notes": "", "pk": "217", "eats_name": "<eats_name/>", "eats_url": "<eats_url/>", "record_title": "<record_title/>", "record_url": "<record_url/>"}, "geometry": {"type": "Point", "coordinates": [-1.6561643849267278, 52.478047953546884]}}</feature>
    <feature xml:id="id-154" type="Point">{"type": "Feature", "properties": {"name": "Shire Hall", "place_type": "residence", "is_approximate": false, "placeholder_coordinates": null, "container": 1250, "patrons_label_flag": 3, "symbol_flag": 3, "notes": "", "pk": "154", "eats_name": "<eats_name/>", "eats_url": "<eats_url/>", "record_title": "<record_title/>", "record_url": "<record_url/>"}, "geometry": {"type": "Point", "coordinates": [-2.4363263501056913, 50.71571025925157]}}</feature>
    <feature xml:id="id-161" type="Point">{"type": "Feature", "properties": {"name": "Christ's College", "place_type": "college", "is_approximate": false, "placeholder_coordinates": null, "container": 68, "patrons_label_flag": 3, "symbol_flag": 3, "notes": "", "pk": "161", "eats_name": "<eats_name/>", "eats_url": "<eats_url/>", "record_title": "<record_title/>", "record_url": "<record_url/>"}, "geometry": {"type": "Point", "coordinates": [0.1222162830879937, 52.20538910762925]}}</feature>
    <feature xml:id="id-216" type="Point">{"type": "Feature", "properties": {"name": "Pershore Abbey", "place_type": "religious house", "is_approximate": false, "placeholder_coordinates": null, "container": 1344, "patrons_label_flag": 3, "symbol_flag": 3, "notes": "", "pk": "216", "eats_name": "<eats_name/>", "eats_url": "<eats_url/>", "record_title": "<record_title/>", "record_url": "<record_url/>"}, "geometry": {"type": "Point", "coordinates": [-2.077586496775232, 52.110448688892696]}}</feature>
    <feature xml:id="id-209" type="Point">{"type": "Feature", "properties": {"name": "Dore Abbey", "place_type": "religious house", "is_approximate": false, "placeholder_coordinates": null, "container": 30, "patrons_label_flag": 3, "symbol_flag": 3, "notes": "", "pk": "209", "eats_name": "<eats_name/>", "eats_url": "<eats_url/>", "record_title": "<record_title/>", "record_url": "<record_url/>"}, "geometry": {"type": "Point", "coordinates": [-2.893450509921489, 51.96866951431576]}}</feature>
    <feature xml:id="id-131" type="Point">{"type": "Feature", "properties": {"name": "Poughill", "place_type": "settlement", "is_approximate": false, "placeholder_coordinates": null, "container": 38, "patrons_label_flag": 1, "symbol_flag": 1, "notes": "", "pk": "131", "eats_name": "<eats_name/>", "eats_url": "<eats_url/>", "record_title": "<record_title/>", "record_url": "<record_url/>"}, "geometry": {"type": "Point", "coordinates": [-4.526099034495806, 50.84189975167288]}}</feature>
    <feature xml:id="id-144" type="Point">{"type": "Feature", "properties": {"name": "Reading", "place_type": "settlement", "is_approximate": false, "placeholder_coordinates": null, "container": 21, "patrons_label_flag": 1, "symbol_flag": 1, "notes": "", "pk": "144", "eats_name": "<eats_name/>", "eats_url": "<eats_url/>", "record_title": "<record_title/>", "record_url": "<record_url/>"}, "geometry": {"type": "Point", "coordinates": [-0.9694475875784629, 51.45390411923591]}}</feature>
    <feature xml:id="id-163" type="Point">{"type": "Feature", "properties": {"name": "Saffron Walden", "place_type": "settlement", "is_approximate": false, "placeholder_coordinates": null, "container": 48, "patrons_label_flag": 1, "symbol_flag": 1, "notes": "", "pk": "163", "eats_name": "<eats_name/>", "eats_url": "<eats_url/>", "record_title": "<record_title/>", "record_url": "<record_url/>"}, "geometry": {"type": "Point", "coordinates": [0.24134584975681997, 52.02352158209369]}}</feature>
    <feature xml:id="id-223" type="Point">{"type": "Feature", "properties": {"name": "Peterborough Abbey", "place_type": "religious house", "is_approximate": false, "placeholder_coordinates": null, "container": 1346, "patrons_label_flag": 3, "symbol_flag": 3, "notes": "", "pk": "223", "eats_name": "<eats_name/>", "eats_url": "<eats_url/>", "record_title": "<record_title/>", "record_url": "<record_url/>"}, "geometry": {"type": "Point", "coordinates": [-0.23934169578155184, 52.5724527680606]}}</feature>
    <feature xml:id="id-142" type="Point">{"type": "Feature", "properties": {"name": "Abingdon", "place_type": "settlement", "is_approximate": false, "placeholder_coordinates": null, "container": 21, "patrons_label_flag": 1, "symbol_flag": 1, "notes": "", "pk": "142", "eats_name": "<eats_name/>", "eats_url": "<eats_url/>", "record_title": "<record_title/>", "record_url": "<record_url/>"}, "geometry": {"type": "Point", "coordinates": [-1.2788760906603425, 51.67004724506322]}}</feature>
    <feature xml:id="id-212" type="Point">{"type": "Feature", "properties": {"name": "Selby Abbey", "place_type": "religious house", "is_approximate": false, "placeholder_coordinates": null, "container": 3, "patrons_label_flag": 3, "symbol_flag": 3, "notes": "", "pk": "212", "eats_name": "<eats_name/>", "eats_url": "<eats_url/>", "record_title": "<record_title/>", "record_url": "<record_url/>"}, "geometry": {"type": "Point", "coordinates": [-1.0670996081054291, 53.78404257264033]}}</feature>
    <feature xml:id="id-148" type="Point">{"type": "Feature", "properties": {"name": "Falmouth", "place_type": "settlement", "is_approximate": false, "placeholder_coordinates": null, "container": 38, "patrons_label_flag": 1, "symbol_flag": 1, "notes": "", "pk": "148", "eats_name": "<eats_name/>", "eats_url": "<eats_url/>", "record_title": "<record_title/>", "record_url": "<record_url/>"}, "geometry": {"type": "Point", "coordinates": [-5.0664365564460505, 50.15198588619008]}}</feature>
    <feature xml:id="id-386" type="Point">{"type": "Feature", "properties": {"name": "Coity Castle", "place_type": "residence", "is_approximate": false, "placeholder_coordinates": null, "container": 1372, "patrons_label_flag": 3, "symbol_flag": 3, "notes": "", "pk": "386", "eats_name": "<eats_name/>", "eats_url": "<eats_url/>", "record_title": "<record_title/>", "record_url": "<record_url/>"}, "geometry": {"type": "Point", "coordinates": [-3.5749683380132016, 51.505782861223175]}}</feature>
    <feature xml:id="id-137" type="Point">{"type": "Feature", "properties": {"name": "Somerton", "place_type": "settlement", "is_approximate": false, "placeholder_coordinates": null, "container": 39, "patrons_label_flag": 1, "symbol_flag": 1, "notes": "", "pk": "137", "eats_name": "<eats_name/>", "eats_url": "<eats_url/>", "record_title": "<record_title/>", "record_url": "<record_url/>"}, "geometry": {"type": "Point", "coordinates": [-2.7283457688826607, 51.05439440135218]}}</feature>
    <feature xml:id="id-221" type="Point">{"type": "Feature", "properties": {"name": "Wymondham  Abbey", "place_type": "religious house", "is_approximate": false, "placeholder_coordinates": null, "container": 37, "patrons_label_flag": 3, "symbol_flag": 3, "notes": "", "pk": "221", "eats_name": "<eats_name/>", "eats_url": "<eats_url/>", "record_title": "<record_title/>", "record_url": "<record_url/>"}, "geometry": {"type": "Point", "coordinates": [1.1073679004597903, 52.57047526233988]}}</feature>
    <feature xml:id="id-215" type="Point">{"type": "Feature", "properties": {"name": "Somerton Castle", "place_type": "residence", "is_approximate": false, "placeholder_coordinates": null, "container": 60, "patrons_label_flag": 2, "symbol_flag": 2, "notes": "", "pk": "215", "eats_name": "<eats_name/>", "eats_url": "<eats_url/>", "record_title": "<record_title/>", "record_url": "<record_url/>"}, "geometry": {"type": "Point", "coordinates": [-0.5758015567914411, 53.117746799337]}}</feature>
    <feature xml:id="id-165" type="Point">{"type": "Feature", "properties": {"name": "Sudbury", "place_type": "settlement", "is_approximate": false, "placeholder_coordinates": null, "container": 11, "patrons_label_flag": 1, "symbol_flag": 1, "notes": "", "pk": "165", "eats_name": "<eats_name/>", "eats_url": "<eats_url/>", "record_title": "<record_title/>", "record_url": "<record_url/>"}, "geometry": {"type": "Point", "coordinates": [0.7296454144839588, 52.03849678023624]}}</feature>
    <feature xml:id="id-134" type="Point">{"type": "Feature", "properties": {"name": "Taunton", "place_type": "settlement", "is_approximate": false, "placeholder_coordinates": null, "container": 39, "patrons_label_flag": 1, "symbol_flag": 1, "notes": "", "pk": "134", "eats_name": "<eats_name/>", "eats_url": "<eats_url/>", "record_title": "<record_title/>", "record_url": "<record_url/>"}, "geometry": {"type": "Point", "coordinates": [-3.0983997621810913, 51.01660446284192]}}</feature>
    <feature xml:id="id-130" type="Point">{"type": "Feature", "properties": {"name": "Thame", "place_type": "settlement", "is_approximate": false, "placeholder_coordinates": null, "container": 22, "patrons_label_flag": 1, "symbol_flag": 1, "notes": "", "pk": "130", "eats_name": "<eats_name/>", "eats_url": "<eats_url/>", "record_title": "<record_title/>", "record_url": "<record_url/>"}, "geometry": {"type": "Point", "coordinates": [-0.9784240273095325, 51.747653324578344]}}</feature>
    <feature xml:id="id-218" type="Point">{"type": "Feature", "properties": {"name": "Wolfhall", "place_type": "residence", "is_approximate": false, "placeholder_coordinates": null, "container": 20, "patrons_label_flag": 2, "symbol_flag": 2, "notes": "", "pk": "218", "eats_name": "<eats_name/>", "eats_url": "<eats_url/>", "record_title": "<record_title/>", "record_url": "<record_url/>"},